DistrictID,DistrictName,ProvinceID,ProvinceName,Region,GID_2,GID_1,NAME_1,NAME_2,GADM_Latitude,GADM_Longitude,Population,Population_Density,Area,Is Strategic Zone Hub,Est Merchant 2026,Distributor Code,Distributor Name,SO,SO OFF,AO M06,Amount (Tax) M06,AO OFF M06,Amount (Tax) OFF M06,AO M05,Amount (Tax) M05,AO OFF M05,Amount (Tax) OFF M05
9877,An Khánh,1,Hà Nội,NO,An Khánh_09877,Hà Nội,An Khánh_09877,Hà Nội,20.982931,105.708572,100593,3506.204252,28.69,0,1257,0,0,0,0,0,0,0,0,0,0,0,0
4,Ba Đình,1,Hà Nội,NO,Ba Đình_00004,Hà Nội,Ba Đình_00004,Hà Nội,21.039687,105.83718,64040,21562.28956,2.97,0,800,0,0,0,0,0,0,0,0,0,0,0,0
9700,Ba Vì,1,Hà Nội,NO,Ba Vì_09700,Hà Nội,Ba Vì_09700,Hà Nội,21.059128,105.337614,26248,322.9728067,81.27,0,328,0,0,0,0,0,0,0,0,0,0,0,0
292,Bạch Mai,1,Hà Nội,NO,Bạch Mai,Hà Nội,Bạch Mai,Hà Nội,21.002772,105.851432,127613,43258.64407,2.95,0,1595,0,0,0,0,0,0,0,0,0,0,0,0
9676,Bất Bạt,1,Hà Nội,NO,Bất Bạt,Hà Nội,Bất Bạt,Hà Nội,21.159699,105.329456,39461,699.2911572,56.43,0,493,0,0,0,0,0,0,0,0,0,0,0,0
577,Bát Tràng,1,Hà Nội,NO,Bát Tràng,Hà Nội,Bát Tràng,Hà Nội,20.969554,105.945437,48247,2334.155781,20.67,0,603,0,0,0,0,0,0,0,0,0,0,0,0
10126,Bình Minh,1,Hà Nội,NO,Bình Minh_10126,Hà Nội,Bình Minh_10126,Hà Nội,20.904028,105.757543,78857,2640.890824,29.86,0,985,0,0,0,0,0,0,0,0,0,0,0,0
118,Bồ Đề,1,Hà Nội,NO,Bồ Đề,Hà Nội,Bồ Đề,Hà Nội,21.050092,105.875797,118214,9135.548686,12.94,0,1477,0,0,0,0,0,0,0,0,0,0,0,0
166,Cầu Giấy,1,Hà Nội,NO,Cầu Giấy,Hà Nội,Cầu Giấy,Hà Nội,21.02859,105.789587,73389,19622.72727,3.74,0,917,0,0,0,0,0,0,0,0,0,0,0,0
10237,Chương Dương,1,Hà Nội,NO,Chương Dương,Hà Nội,Chương Dương,Hà Nội,20.835203,105.898197,59067,2044.548287,28.89,0,738,0,0,0,0,0,0,0,0,0,0,0,0
10015,Chương Mỹ,1,Hà Nội,NO,Chương Mỹ,Hà Nội,Chương Mỹ,Hà Nội,20.925771,105.702604,86584,2225.809769,38.9,0,1082,0,0,0,0,0,0,0,0,0,0,0,0
10330,Chuyên Mỹ,1,Hà Nội,NO,Chuyên Mỹ,Hà Nội,Chuyên Mỹ,Hà Nội,20.715483,105.881369,44181,1243.134496,35.54,0,552,0,0,0,0,0,0,0,0,0,0,0,0
9634,Cổ Đô,1,Hà Nội,NO,Cổ Đô,Hà Nội,Cổ Đô,Hà Nội,21.270688,105.39788,69638,1307.755869,53.25,0,870,0,0,0,0,0,0,0,0,0,0,0,0
82,Cửa Nam,1,Hà Nội,NO,Cửa Nam,Hà Nội,Cửa Nam,Hà Nội,21.022791,105.85121,51953,30924.40476,1.68,0,649,0,0,0,0,0,0,0,0,0,0,0,0
430,Đa Phúc,1,Hà Nội,NO,Đa Phúc,Hà Nội,Đa Phúc,Hà Nội,21.247608,105.912913,82385,1489.244396,55.32,0,1029,0,0,0,0,0,0,0,0,0,0,0,0
637,Đại Mỗ,1,Hà Nội,NO,Đại Mỗ,Hà Nội,Đại Mỗ,Hà Nội,20.993346,105.776689,79246,9783.45679,8.1,0,990,0,0,0,0,0,0,0,0,0,0,0,0
664,Đại Thanh,1,Hà Nội,NO,Đại Thanh,Hà Nội,Đại Thanh,Hà Nội,20.934164,105.818844,91159,4818.128964,18.92,0,1139,0,0,0,0,0,0,0,0,0,0,0,0
10342,Đại Xuyên,1,Hà Nội,NO,Đại Xuyên,Hà Nội,Đại Xuyên,Hà Nội,20.696674,105.953555,73774,1428.068138,51.66,0,922,0,0,0,0,0,0,0,0,0,0,0,0
10180,Dân Hòa,1,Hà Nội,NO,Dân Hòa,Hà Nội,Dân Hòa,Hà Nội,20.810729,105.79478,61807,1608.300807,38.43,0,772,0,0,0,0,0,0,0,0,0,0,0,0
9784,Đan Phượng,1,Hà Nội,NO,Đan Phượng,Hà Nội,Đan Phượng,Hà Nội,21.094528,105.668574,46910,3066.013072,15.3,0,586,0,0,0,0,0,0,0,0,0,0,0,0
316,Định Công,1,Hà Nội,NO,Định Công,Hà Nội,Định Công,Hà Nội,20.977947,105.824517,84209,15769.47566,5.34,0,1052,0,0,0,0,0,0,0,0,0,0,0,0
9616,Đoài Phương,1,Hà Nội,NO,Đoài Phương,Hà Nội,Đoài Phương,Hà Nội,21.063981,105.494895,39226,686.9702277,57.1,0,490,0,0,0,0,0,0,0,0,0,0,0,0
454,Đông Anh,1,Hà Nội,NO,Đông Anh,Hà Nội,Đông Anh,Hà Nội,21.110913,105.875918,116398,2391.084634,48.68,0,1454,0,0,0,0,0,0,0,0,0,0,0,0
235,Đống Đa,1,Hà Nội,NO,Đống Đa,Hà Nội,Đống Đa,Hà Nội,21.010992,105.818233,80128,38709.17874,2.07,0,1001,0,0,0,0,0,0,0,0,0,0,0,0
602,Đông Ngạc,1,Hà Nội,NO,Đông Ngạc,Hà Nội,Đông Ngạc,Hà Nội,21.077624,105.779164,82281,9297.288136,8.85,0,1028,0,0,0,0,0,0,0,0,0,0,0,0
9856,Dương Hòa,1,Hà Nội,NO,Dương Hòa,Hà Nội,Dương Hòa,Hà Nội,21.048491,105.671186,5794,332.797243,17.41,0,72,0,0,0,0,0,0,0,0,0,0,0,0
9886,Dương Nội,1,Hà Nội,NO,Dương Nội,Hà Nội,Dương Nội,Hà Nội,20.973768,105.749108,55243,6992.78481,7.9,0,690,0,0,0,0,0,0,0,0,0,0,0,0
565,Gia Lâm,1,Hà Nội,NO,Gia Lâm_00565,Hà Nội,Gia Lâm_00565,Hà Nội,20.998838,105.95364,89131,3465.435459,25.72,0,1114,0,0,0,0,0,0,0,0,0,0,0,0
25,Giảng Võ,1,Hà Nội,NO,Giảng Võ,Hà Nội,Giảng Võ,Hà Nội,21.026078,105.816743,95567,36756.53846,2.6,0,1194,0,0,0,0,0,0,0,0,0,0,0,0
9982,Hạ Bằng,1,Hà Nội,NO,Hạ Bằng,Hà Nội,Hạ Bằng,Hà Nội,21.01611,105.571147,38136,1186.558805,32.14,0,476,0,0,0,0,0,0,0,0,0,0,0,0
9556,Hà Đông,1,Hà Nội,NO,Hà Đông_09556,Hà Nội,Hà Đông_09556,Hà Nội,20.974336,105.7779,182407,20267.44444,9,0,2280,0,0,0,0,0,0,0,0,0,0,0,0
256,Hai Bà Trưng,1,Hà Nội,NO,Hai Bà Trưng,Hà Nội,Hai Bà Trưng,Hà Nội,21.014645,105.852223,86475,32632.07547,2.65,0,1080,0,0,0,0,0,0,0,0,0,0,0,0
9772,Hát Môn,1,Hà Nội,NO,Hát Môn,Hà Nội,Hát Môn,Hà Nội,21.089081,105.619918,71136,1888.399257,37.67,0,889,0,0,0,0,0,0,0,0,0,0,0,0
9988,Hòa Lạc,1,Hà Nội,NO,Hòa Lạc_09988,Hà Nội,Hòa Lạc_09988,Hà Nội,21.013652,105.506794,20501,579.6154934,35.37,0,256,0,0,0,0,0,0,0,0,0,0,0,0
10096,Hòa Phú,1,Hà Nội,NO,Hòa Phú_10096,Hà Nội,Hòa Phú_10096,Hà Nội,20.832675,105.725178,49193,1646.903247,29.87,0,614,0,0,0,0,0,0,0,0,0,0,0,0
10417,Hòa Xá,1,Hà Nội,NO,Hòa Xá,Hà Nội,Hòa Xá,Hà Nội,20.668276,105.798978,68379,1691.712024,40.42,0,854,0,0,0,0,0,0,0,0,0,0,0,0
9832,Hoài Đức,1,Hà Nội,NO,Hoài Đức_09832,Hà Nội,Hoài Đức_09832,Hà Nội,21.064596,105.705792,68193,4076.090855,16.73,0,852,0,0,0,0,0,0,0,0,0,0,0,0
70,Hoàn Kiếm,1,Hà Nội,NO,Hoàn Kiếm,Hà Nội,Hoàn Kiếm,Hà Nội,21.032421,105.849767,103710,54298.42932,1.91,0,1296,0,0,0,0,0,0,0,0,0,0,0,0
337,Hoàng Liệt,1,Hà Nội,NO,Hoàng Liệt,Hà Nội,Hoàng Liệt,Hà Nội,20.960833,105.828259,5498,1360.891089,4.04,0,68,0,0,0,0,0,0,0,0,0,0,0,0
331,Hoàng Mai,1,Hà Nội,NO,Hoàng Mai_00331,Hà Nội,Hoàng Mai_00331,Hà Nội,20.974408,105.862445,97014,10731.63717,9.04,0,1212,0,0,0,0,0,0,0,0,0,0,0,0
97,Hồng Hà,1,Hà Nội,NO,Hồng Hà,Hà Nội,Hồng Hà,Hà Nội,21.048095,105.852419,121420,8046.388337,15.09,0,1517,0,0,0,0,0,0,0,0,0,0,0,0
10465,Hồng Sơn,1,Hà Nội,NO,Hồng Sơn_10465,Hà Nội,Hồng Sơn_10465,Hà Nội,20.716002,105.713751,6218,114.3435086,54.38,0,77,0,0,0,0,0,0,0,0,0,0,0,0
10210,Hồng Vân,1,Hà Nội,NO,Hồng Vân,Hà Nội,Hồng Vân,Hà Nội,20.879943,105.898711,57799,2356.257644,24.53,0,722,0,0,0,0,0,0,0,0,0,0,0,0
9931,Hưng Đạo,1,Hà Nội,NO,Hưng Đạo_09931,Hà Nội,Hưng Đạo_09931,Hà Nội,20.969512,105.657909,48611,1952.248996,24.9,0,607,0,0,0,0,0,0,0,0,0,0,0,0
10489,Hương Sơn,1,Hà Nội,NO,Hương Sơn_10489,Hà Nội,Hương Sơn_10489,Hà Nội,20.6205,105.752217,51839,750.094053,69.11,0,647,0,0,0,0,0,0,0,0,0,0,0,0
364,Khương Đình,1,Hà Nội,NO,Khương Đình,Hà Nội,Khương Đình,Hà Nội,20.990033,105.814097,84983,27413.87097,3.1,0,1062,0,0,0,0,0,0,0,0,0,0,0,0
9552,Kiến Hưng,1,Hà Nội,NO,Kiến Hưng_09552,Hà Nội,Kiến Hưng_09552,Hà Nội,20.952922,105.777051,69763,10490.67669,6.65,0,872,0,0,0,0,0,0,0,0,0,0,0,0
9910,Kiều Phú,1,Hà Nội,NO,Kiều Phú,Hà Nội,Kiều Phú,Hà Nội,20.973882,105.602157,59965,1736.60585,34.53,0,749,0,0,0,0,0,0,0,0,0,0,0,0
382,Kim Anh,1,Hà Nội,NO,Kim Anh,Hà Nội,Kim Anh,Hà Nội,21.296454,105.773674,47830,905.8712121,52.8,0,597,0,0,0,0,0,0,0,0,0,0,0,0
229,Kim Liên,1,Hà Nội,NO,Kim Liên_00229,Hà Nội,Kim Liên_00229,Hà Nội,21.006114,105.832081,107459,43682.52033,2.46,0,1343,0,0,0,0,0,0,0,0,0,0,0,0
199,Láng,1,Hà Nội,NO,Láng,Hà Nội,Láng,Hà Nội,21.020992,105.80479,60212,32027.65957,1.88,0,752,0,0,0,0,0,0,0,0,0,0,0,0
9787,Liên Minh,1,Hà Nội,NO,Liên Minh_09787,Hà Nội,Liên Minh_09787,Hà Nội,21.130349,105.650986,47047,1996.054306,23.57,0,588,0,0,0,0,0,0,0,0,0,0,0,0
328,Lĩnh Nam,1,Hà Nội,NO,Lĩnh Nam,Hà Nội,Lĩnh Nam,Hà Nội,20.974408,105.895071,20393,1877.808471,10.86,0,254,0,0,0,0,0,0,0,0,0,0,0,0
145,Long Biên,1,Hà Nội,NO,Long Biên,Hà Nội,Long Biên,Hà Nội,21.023614,105.899532,61937,3252.993697,19.04,0,774,0,0,0,0,0,0,0,0,0,0,0,0
9022,Mê Linh,1,Hà Nội,NO,Mê Linh,Hà Nội,Mê Linh,Hà Nội,21.146969,105.734733,61257,1751.701458,34.97,0,765,0,0,0,0,0,0,0,0,0,0,0,0
9661,Minh Châu,1,Hà Nội,NO,Minh Châu_09661,Hà Nội,Minh Châu_09661,Hà Nội,21.209224,105.451214,6546,631.8532819,10.36,0,81,0,0,0,0,0,0,0,0,0,0,0,0
10441,Mỹ Đức,1,Hà Nội,NO,Mỹ Đức_10441,Hà Nội,Mỹ Đức_10441,Hà Nội,20.654002,105.697512,5283,100.1896454,52.73,0,66,0,0,0,0,0,0,0,0,0,0,0,0
685,Nam Phù,1,Hà Nội,NO,Nam Phù,Hà Nội,Nam Phù,Hà Nội,20.918307,105.887488,42126,3065.938865,13.74,0,526,0,0,0,0,0,0,0,0,0,0,0,0
160,Nghĩa Đô,1,Hà Nội,NO,Nghĩa Đô_00160,Hà Nội,Nghĩa Đô_00160,Hà Nội,21.043627,105.793736,123671,28495.62212,4.34,0,1545,0,0,0,0,0,0,0,0,0,0,0,0
8,Ngọc Hà,1,Hà Nội,NO,Ngọc Hà,Hà Nội,Ngọc Hà,Hà Nội,21.038538,105.816622,92123,34374.25373,2.68,0,1151,0,0,0,0,0,0,0,0,0,0,0,0
679,Ngọc Hồi,1,Hà Nội,NO,Ngọc Hồi,Hà Nội,Ngọc Hồi,Hà Nội,20.913754,105.834149,43201,3236.029963,13.35,0,540,0,0,0,0,0,0,0,0,0,0,0,0
433,Nội Bài,1,Hà Nội,NO,Nội Bài,Hà Nội,Nội Bài,Hà Nội,21.236049,105.773554,69405,1344.016266,51.64,0,867,0,0,0,0,0,0,0,0,0,0,0,0
190,Ô Chợ Dừa,1,Hà Nội,NO,Ô Chợ Dừa,Hà Nội,Ô Chợ Dừa,Hà Nội,21.022296,105.825446,70216,38369.39891,1.83,0,877,0,0,0,0,0,0,0,0,0,0,0,0
9817,Ô Diên,1,Hà Nội,NO,Ô Diên,Hà Nội,Ô Diên,Hà Nội,21.105655,105.710537,96033,2995.414847,32.06,0,1200,0,0,0,0,0,0,0,0,0,0,0,0
9952,Phú Cát,1,Hà Nội,NO,Phú Cát,Hà Nội,Phú Cát,Hà Nội,20.949707,105.557066,42684,833.5090803,51.21,0,533,0,0,0,0,0,0,0,0,0,0,0,0
619,Phú Diễn,1,Hà Nội,NO,Phú Diễn,Hà Nội,Phú Diễn,Hà Nội,21.048157,105.763636,73476,11681.39905,6.29,0,918,0,0,0,0,0,0,0,0,0,0,0,0
541,Phù Đổng,1,Hà Nội,NO,Phù Đổng,Hà Nội,Phù Đổng,Hà Nội,21.079381,105.932516,109800,2638.154733,41.62,0,1372,0,0,0,0,0,0,0,0,0,0,0,0
9568,Phú Lương,1,Hà Nội,NO,Phú Lương_09568,Hà Nội,Phú Lương_09568,Hà Nội,20.938517,105.768066,51238,5450.851064,9.4,0,640,0,0,0,0,0,0,0,0,0,0,0,0
10030,Phú Nghĩa,1,Hà Nội,NO,Phú Nghĩa_10030,Hà Nội,Phú Nghĩa_10030,Hà Nội,20.918487,105.639652,69975,1738.509317,40.25,0,874,0,0,0,0,0,0,0,0,0,0,0,0
91,Phú Thượng,1,Hà Nội,NO,Phú Thượng,Hà Nội,Phú Thượng,Hà Nội,21.084201,105.802051,38728,5371.428571,7.21,0,484,0,0,0,0,0,0,0,0,0,0,0,0
10273,Phú Xuyên,1,Hà Nội,NO,Phú Xuyên_10273,Hà Nội,Phú Xuyên_10273,Hà Nội,20.762517,105.92245,95175,1585.721426,60.02,0,1189,0,0,0,0,0,0,0,0,0,0,0,0
9739,Phúc Lộc,1,Hà Nội,NO,Phúc Lộc_09739,Hà Nội,Phúc Lộc_09739,Hà Nội,21.146207,105.571873,60529,1470.935601,41.15,0,756,0,0,0,0,0,0,0,0,0,0,0,0
136,Phúc Lợi,1,Hà Nội,NO,Phúc Lợi_00136,Hà Nội,Phúc Lợi_00136,Hà Nội,21.04166,105.91729,6578,631.8924111,10.41,0,82,0,0,0,0,0,0,0,0,0,0,0,0
10459,Phúc Sơn,1,Hà Nội,NO,Phúc Sơn,Hà Nội,Phúc Sơn,Hà Nội,20.780439,105.6844,53267,1080.247414,49.31,0,665,0,0,0,0,0,0,0,0,0,0,0,0
466,Phúc Thịnh,1,Hà Nội,NO,Phúc Thịnh,Hà Nội,Phúc Thịnh,Hà Nội,21.158587,105.808802,94502,2216.795684,42.63,0,1181,0,0,0,0,0,0,0,0,0,0,0,0
9715,Phúc Thọ,1,Hà Nội,NO,Phúc Thọ,Hà Nội,Phúc Thọ,Hà Nội,21.107502,105.546059,74286,1873.071104,39.66,0,928,0,0,0,0,0,0,0,0,0,0,0,0
10279,Phượng Dực,1,Hà Nội,NO,Phượng Dực,Hà Nội,Phượng Dực,Hà Nội,20.772153,105.842208,59370,1328.48512,44.69,0,742,0,0,0,0,0,0,0,0,0,0,0,0
352,Phương Liệt,1,Hà Nội,NO,Phương Liệt,Hà Nội,Phương Liệt,Hà Nội,20.99363,105.8316,80739,25230.9375,3.2,0,1009,0,0,0,0,0,0,0,0,0,0,0,0
10072,Quảng Bị,1,Hà Nội,NO,Quảng Bị,Hà Nội,Quảng Bị,Hà Nội,20.871662,105.699032,62017,1669.816909,37.14,0,775,0,0,0,0,0,0,0,0,0,0,0,0
8974,Quang Minh,1,Hà Nội,NO,Quang Minh,Hà Nội,Quang Minh,Hà Nội,21.198946,105.752205,68571,2131.52005,32.17,0,857,0,0,0,0,0,0,0,0,0,0,0,0
9619,Quảng Oai,1,Hà Nội,NO,Quảng Oai,Hà Nội,Quảng Oai,Hà Nội,21.177794,105.429568,58110,1179.658952,49.26,0,726,0,0,0,0,0,0,0,0,0,0,0,0
9895,Quốc Oai,1,Hà Nội,NO,Quốc Oai,Hà Nội,Quốc Oai,Hà Nội,21.008489,105.652483,62387,2599.458333,24,0,779,0,0,0,0,0,0,0,0,0,0,0,0
376,Sóc Sơn,1,Hà Nội,NO,Sóc Sơn,Hà Nội,Sóc Sơn,Hà Nội,21.245633,105.850029,116095,1701.274912,68.24,0,1451,0,0,0,0,0,0,0,0,0,0,0,0
9871,Sơn Đồng,1,Hà Nội,NO,Sơn Đồng,Hà Nội,Sơn Đồng,Hà Nội,21.026945,105.708584,62311,2888.780714,21.57,0,778,0,0,0,0,0,0,0,0,0,0,0,0
9574,Sơn Tây,1,Hà Nội,NO,Sơn Tây_09574,Hà Nội,Sơn Tây_09574,Hà Nội,21.1427,105.486925,70224,3042.634315,23.08,0,877,0,0,0,0,0,0,0,0,0,0,0,0
9694,Suối Hai,1,Hà Nội,NO,Suối Hai,Hà Nội,Suối Hai,Hà Nội,21.124315,105.376275,34669,672.4010861,51.56,0,433,0,0,0,0,0,0,0,0,0,0,0,0
10144,Tam Hưng,1,Hà Nội,NO,Tam Hưng,Hà Nội,Tam Hưng,Hà Nội,20.878525,105.793496,38497,1307.198642,29.45,0,481,0,0,0,0,0,0,0,0,0,0,0,0
103,Tây Hồ,1,Hà Nội,NO,Tây Hồ_00103,Hà Nội,Tây Hồ_00103,Hà Nội,21.061669,105.818587,98610,9198.69403,10.72,0,1232,0,0,0,0,0,0,0,0,0,0,0,0
634,Tây Mỗ,1,Hà Nội,NO,Tây Mỗ,Hà Nội,Tây Mỗ,Hà Nội,20.999166,105.748331,46186,8306.834532,5.56,0,577,0,0,0,0,0,0,0,0,0,0,0,0
10003,Tây Phương,1,Hà Nội,NO,Tây Phương,Hà Nội,Tây Phương,Hà Nội,21.040142,105.611578,98365,3166.934965,31.06,0,1229,0,0,0,0,0,0,0,0,0,0,0,0
613,Tây Tựu,1,Hà Nội,NO,Tây Tựu,Hà Nội,Tây Tựu,Hà Nội,21.066007,105.740132,38840,5151.193634,7.54,0,485,0,0,0,0,0,0,0,0,0,0,0,0
9955,Thạch Thất,1,Hà Nội,NO,Thạch Thất,Hà Nội,Thạch Thất,Hà Nội,21.06664,105.561778,56774,1778.077044,31.93,0,709,0,0,0,0,0,0,0,0,0,0,0,0
643,Thanh Liệt,1,Hà Nội,NO,Thanh Liệt,Hà Nội,Thanh Liệt,Hà Nội,20.97085,105.80224,75086,11659.31677,6.44,0,938,0,0,0,0,0,0,0,0,0,0,0,0
10114,Thanh Oai,1,Hà Nội,NO,Thanh Oai,Hà Nội,Thanh Oai,Hà Nội,20.844085,105.767749,53652,1997.468354,26.86,0,670,0,0,0,0,0,0,0,0,0,0,0,0
640,Thanh Trì,1,Hà Nội,NO,Thanh Trì,Hà Nội,Thanh Trì,Hà Nội,20.938888,105.861098,54541,5373.497537,10.15,0,681,0,0,0,0,0,0,0,0,0,0,0,0
367,Thanh Xuân,1,Hà Nội,NO,Thanh Xuân,Hà Nội,Thanh Xuân,Hà Nội,20.997183,105.802575,104710,32317.90123,3.24,0,1308,0,0,0,0,0,0,0,0,0,0,0,0
493,Thiên Lộc,1,Hà Nội,NO,Thiên Lộc,Hà Nội,Thiên Lộc,Hà Nội,21.125905,105.761179,73470,2627.682403,27.96,0,918,0,0,0,0,0,0,0,0,0,0,0,0
475,Thư Lâm,1,Hà Nội,NO,Thư Lâm,Hà Nội,Thư Lâm,Hà Nội,21.162653,105.884466,10103,230.4516423,43.84,0,126,0,0,0,0,0,0,0,0,0,0,0,0
562,Thuận An,1,Hà Nội,NO,Thuận An_00562,Hà Nội,Thuận An_00562,Hà Nội,21.032205,105.975447,67260,2266.936299,29.67,0,840,0,0,0,0,0,0,0,0,0,0,0,0
598,Thượng Cát,1,Hà Nội,NO,Thượng Cát,Hà Nội,Thượng Cát,Hà Nội,21.08665,105.748758,24319,1646.513202,14.77,0,303,0,0,0,0,0,0,0,0,0,0,0,0
10231,Thượng Phúc,1,Hà Nội,NO,Thượng Phúc,Hà Nội,Thượng Phúc,Hà Nội,20.828894,105.848131,44777,1548.841231,28.91,0,559,0,0,0,0,0,0,0,0,0,0,0,0
10183,Thường Tín,1,Hà Nội,NO,Thường Tín,Hà Nội,Thường Tín,Hà Nội,20.870095,105.844259,69670,2462.707671,28.29,0,870,0,0,0,0,0,0,0,0,0,0,0,0
8995,Tiến Thắng,1,Hà Nội,NO,Tiến Thắng,Hà Nội,Tiến Thắng,Hà Nội,21.207576,105.684919,63276,1741.221794,36.34,0,790,0,0,0,0,0,0,0,0,0,0,0,0
10081,Trần Phú,1,Hà Nội,NO,Trần Phú_10081,Hà Nội,Trần Phú_10081,Hà Nội,20.837087,105.66268,46810,1055.229937,44.36,0,585,0,0,0,0,0,0,0,0,0,0,0,0
385,Trung Giã,1,Hà Nội,NO,Trung Giã,Hà Nội,Trung Giã,Hà Nội,21.331276,105.832329,60389,779.0118679,77.52,0,754,0,0,0,0,0,0,0,0,0,0,0,0
592,Từ Liêm,1,Hà Nội,NO,Từ Liêm,Hà Nội,Từ Liêm,Hà Nội,21.021225,105.767155,118184,11609.43026,10.18,0,1477,0,0,0,0,0,0,0,0,0,0,0,0
9604,Tùng Thiện,1,Hà Nội,NO,Tùng Thiện,Hà Nội,Tùng Thiện,Hà Nội,21.122402,105.458743,41417,1280.674088,32.34,0,517,0,0,0,0,0,0,0,0,0,0,0,0
322,Tương Mai,1,Hà Nội,NO,Tương Mai,Hà Nội,Tương Mai,Hà Nội,20.990295,105.852893,134233,37705.89888,3.56,0,1677,0,0,0,0,0,0,0,0,0,0,0,0
10402,Ứng Hòa,1,Hà Nội,NO,Ứng Hòa,Hà Nội,Ứng Hòa,Hà Nội,20.692291,105.841722,6279,92.61061947,67.8,0,78,0,0,0,0,0,0,0,0,0,0,0,0
10369,Ứng Thiên,1,Hà Nội,NO,Ứng Thiên,Hà Nội,Ứng Thiên,Hà Nội,20.773452,105.770665,53147,1384.036458,38.4,0,664,0,0,0,0,0,0,0,0,0,0,0,0
10354,Vân Đình,1,Hà Nội,NO,Vân Đình,Hà Nội,Vân Đình,Hà Nội,20.736033,105.775406,59909,1440.120192,41.6,0,748,0,0,0,0,0,0,0,0,0,0,0,0
226,Văn Miếu - Quốc Tử Giám,1,Hà Nội,NO,Văn Miếu - Quốc Tử Giám,Hà Nội,Văn Miếu - Quốc Tử Giám,Hà Nội,21.023392,105.836907,104009,54171.35417,1.92,0,1300,0,0,0,0,0,0,0,0,0,0,0,0
9664,Vật Lại,1,Hà Nội,NO,Vật Lại,Hà Nội,Vật Lại,Hà Nội,21.211196,105.379367,57694,1114.859903,51.75,0,721,0,0,0,0,0,0,0,0,0,0,0,0
127,Việt Hưng,1,Hà Nội,NO,Việt Hưng_00127,Hà Nội,Việt Hưng_00127,Hà Nội,21.063094,105.906058,81931,6346.320682,12.91,0,1024,0,0,0,0,0,0,0,0,0,0,0,0
301,Vĩnh Hưng,1,Hà Nội,NO,Vĩnh Hưng_00301,Hà Nội,Vĩnh Hưng_00301,Hà Nội,20.991212,105.882863,66540,14885.90604,4.47,0,831,0,0,0,0,0,0,0,0,0,0,0,0
508,Vĩnh Thanh,1,Hà Nội,NO,Vĩnh Thanh_00508,Hà Nội,Vĩnh Thanh_00508,Hà Nội,21.103515,105.817367,63721,2829.529307,22.52,0,796,0,0,0,0,0,0,0,0,0,0,0,0
283,Vĩnh Tuy,1,Hà Nội,NO,Vĩnh Tuy_00283,Hà Nội,Vĩnh Tuy_00283,Hà Nội,20.998187,105.867668,89215,38289.69957,2.33,0,1115,0,0,0,0,0,0,0,0,0,0,0,0
611,Xuân Đỉnh,1,Hà Nội,NO,Xuân Đỉnh,Hà Nội,Xuân Đỉnh,Hà Nội,21.065535,105.795454,47923,8777.106227,5.46,0,599,0,0,0,0,0,0,0,0,0,0,0,0
10045,Xuân Mai,1,Hà Nội,NO,Xuân Mai,Hà Nội,Xuân Mai,Hà Nội,20.861158,105.602436,6629,130.6979495,50.72,0,82,0,0,0,0,0,0,0,0,0,0,0,0
622,Xuân Phương,1,Hà Nội,NO,Xuân Phương,Hà Nội,Xuân Phương,Hà Nội,21.031498,105.748299,103362,9561.702128,10.81,0,1292,0,0,0,0,0,0,0,0,0,0,0,0
9706,Yên Bài,1,Hà Nội,NO,Yên Bài,Hà Nội,Yên Bài,Hà Nội,21.058233,105.418226,21092,309.3122159,68.19,0,263,0,0,0,0,0,0,0,0,0,0,0,0
175,Yên Hòa,1,Hà Nội,NO,Yên Hòa_00175,Hà Nội,Yên Hòa_00175,Hà Nội,21.014064,105.795565,75865,18503.65854,4.1,0,948,0,0,0,0,0,0,0,0,0,0,0,0
8980,Yên Lãng,1,Hà Nội,NO,Yên Lãng_08980,Hà Nội,Yên Lãng_08980,Hà Nội,21.173515,105.66409,70261,1567.975898,44.81,0,878,0,0,0,0,0,0,0,0,0,0,0,0
9562,Yên Nghĩa,1,Hà Nội,NO,Yên Nghĩa,Hà Nội,Yên Nghĩa,Hà Nội,20.937906,105.737384,48893,3709.635812,13.18,0,611,0,0,0,0,0,0,0,0,0,0,0,0
340,Yên Sở,1,Hà Nội,NO,Yên Sở,Hà Nội,Yên Sở,Hà Nội,20.956508,105.857083,40295,7182.709447,5.61,0,503,0,0,0,0,0,0,0,0,0,0,0,0
4930,Yên Xuân,1,Hà Nội,NO,Yên Xuân_04930,Hà Nội,Yên Xuân_04930,Hà Nội,20.973915,105.481512,28931,370.8627099,78.01,0,361,0,0,0,0,0,0,0,0,0,0,0,0
1708,Bạch Đằng,4,Cao Bằng,NO,Bạch Đằng_01708,Cao Bằng,Bạch Đằng_01708,Cao Bằng,22.587749,106.159232,4735,33.43690417,141.61,0,59,0,0,0,0,0,0,0,0,0,0,0,0
1321,Bảo Lạc,4,Cao Bằng,NO,Bảo Lạc,Cao Bằng,Bảo Lạc,Cao Bằng,22.939562,105.637613,10725,90.35383319,118.7,0,134,0,0,0,0,0,0,0,0,0,0,0,0
1290,Bảo Lâm,4,Cao Bằng,NO,Bảo Lâm,Cao Bằng,Bảo Lâm,Cao Bằng,22.831792,105.54918,13984,86.41700655,161.82,0,174,0,0,0,0,0,0,0,0,0,0,0,0
1636,Bế Văn Đàn,4,Cao Bằng,NO,Bế Văn Đàn,Cao Bằng,Bế Văn Đàn,Cao Bằng,22.615252,106.533677,10098,85.35204125,118.31,0,126,0,0,0,0,0,0,0,0,0,0,0,0
1738,Ca Thành,4,Cao Bằng,NO,Ca Thành,Cao Bằng,Ca Thành,Cao Bằng,22.726917,105.820833,4613,41.99362767,109.85,0,57,0,0,0,0,0,0,0,0,0,0,0,0
1366,Cần Yên,4,Cao Bằng,NO,Cần Yên,Cao Bằng,Cần Yên,Cao Bằng,22.885824,105.924188,10218,70.64435841,144.64,0,127,0,0,0,0,0,0,0,0,0,0,0,0
1789,Canh Tân,4,Cao Bằng,NO,Canh Tân,Cao Bằng,Canh Tân,Cao Bằng,22.50624,106.270541,4445,33.58265337,132.36,0,55,0,0,0,0,0,0,0,0,0,0,0,0
1327,Cô Ba,4,Cao Bằng,NO,Cô Ba,Cao Bằng,Cô Ba,Cao Bằng,23.008349,105.720578,8270,61.47784716,134.52,0,103,0,0,0,0,0,0,0,0,0,0,0,0
1324,Cốc Pàng,4,Cao Bằng,NO,Cốc Pàng,Cao Bằng,Cốc Pàng,Cao Bằng,23.045931,105.588093,9981,58.61522199,170.28,0,124,0,0,0,0,0,0,0,0,0,0,0,0
1501,Đàm Thuỷ,4,Cao Bằng,NO,Đàm Thuỷ,Cao Bằng,Đàm Thuỷ,Cao Bằng,22.836622,106.673364,12095,105.5133909,114.63,0,151,0,0,0,0,0,0,0,0,0,0,0,0
1489,Đình Phong,4,Cao Bằng,NO,Đình Phong,Cao Bằng,Đình Phong,Cao Bằng,22.889386,106.559213,10615,93.30227652,113.77,0,132,0,0,0,0,0,0,0,0,0,0,0,0
1525,Đoài Dương,4,Cao Bằng,NO,Đoài Dương,Cao Bằng,Đoài Dương,Cao Bằng,22.764267,106.517363,12347,107.8529001,114.48,0,154,0,0,0,0,0,0,0,0,0,0,0,0
1594,Độc Lập,4,Cao Bằng,NO,Độc Lập,Cao Bằng,Độc Lập,Cao Bằng,22.718267,106.490953,83,0.812053615,102.21,0,1,0,0,0,0,0,0,0,0,0,0,0,0
1786,Đông Khê,4,Cao Bằng,NO,Đông Khê,Cao Bằng,Đông Khê,Cao Bằng,22.418381,106.359783,8962,71.54147042,125.27,0,112,0,0,0,0,0,0,0,0,0,0,0,0
1822,Đức Long,4,Cao Bằng,NO,Đức Long,Cao Bằng,Đức Long,Cao Bằng,22.438605,106.514193,5157,48.22781259,106.93,0,64,0,0,0,0,0,0,0,0,0,0,0,0
1558,Hạ Lang,4,Cao Bằng,NO,Hạ Lang,Cao Bằng,Hạ Lang,Cao Bằng,22.647964,106.713746,7969,98.22507087,81.13,0,99,0,0,0,0,0,0,0,0,0,0,0,0
1438,Hà Quảng,4,Cao Bằng,NO,Hà Quảng,Cao Bằng,Hà Quảng,Cao Bằng,22.847696,106.148814,10831,96.48997773,112.25,0,135,0,0,0,0,0,0,0,0,0,0,0,0
1618,Hạnh Phúc,4,Cao Bằng,NO,Hạnh Phúc_01618,Cao Bằng,Hạnh Phúc_01618,Cao Bằng,22.625011,106.415157,14782,116.5956776,126.78,0,184,0,0,0,0,0,0,0,0,0,0,0,0
1654,Hòa An,4,Cao Bằng,NO,Hòa An_01654,Cao Bằng,Hòa An_01654,Cao Bằng,22.753632,106.198188,20022,206.348552,97.03,0,250,0,0,0,0,0,0,0,0,0,0,0,0
1351,Hưng Đạo,4,Cao Bằng,NO,Hưng Đạo_01351,Cao Bằng,Hưng Đạo_01351,Cao Bằng,22.83837,105.681963,9213,75.25116393,122.43,0,115,0,0,0,0,0,0,0,0,0,0,0,0
1354,Huy Giáp,4,Cao Bằng,NO,Huy Giáp,Cao Bằng,Huy Giáp,Cao Bằng,22.796703,105.777478,7262,54.29126794,133.76,0,90,0,0,0,0,0,0,0,0,0,0,0,0
1336,Khánh Xuân,4,Cao Bằng,NO,Khánh Xuân,Cao Bằng,Khánh Xuân,Cao Bằng,22.928745,105.735557,6464,58.78501273,109.96,0,80,0,0,0,0,0,0,0,0,0,0,0,0
1792,Kim Đồng,4,Cao Bằng,NO,Kim Đồng,Cao Bằng,Kim Đồng,Cao Bằng,22.527627,106.350449,5965,53.23041228,112.06,0,74,0,0,0,0,0,0,0,0,0,0,0,0
1393,Lũng Nặm,4,Cao Bằng,NO,Lũng Nặm,Cao Bằng,Lũng Nặm,Cao Bằng,22.932009,106.108184,7112,72.8763193,97.59,0,88,0,0,0,0,0,0,0,0,0,0,0,0
1294,Lý Bôn,4,Cao Bằng,NO,Lý Bôn,Cao Bằng,Lý Bôn,Cao Bằng,22.924852,105.525561,11629,67.12265512,173.25,0,145,0,0,0,0,0,0,0,0,0,0,0,0
1537,Lý Quốc,4,Cao Bằng,NO,Lý Quốc,Cao Bằng,Lý Quốc,Cao Bằng,22.788167,106.763731,5876,57.50636132,102.18,0,73,0,0,0,0,0,0,0,0,0,0,0,0
1795,Minh Khai,4,Cao Bằng,NO,Minh Khai,Cao Bằng,Minh Khai,Cao Bằng,22.475889,106.174805,4370,25.20184544,173.4,0,54,0,0,0,0,0,0,0,0,0,0,0,0
1747,Minh Tâm,4,Cao Bằng,NO,Minh Tâm,Cao Bằng,Minh Tâm,Cao Bằng,22.698502,106.071459,8058,75.56264066,106.64,0,100,0,0,0,0,0,0,0,0,0,0,0,0
1297,Nam Quang,4,Cao Bằng,NO,Nam Quang,Cao Bằng,Nam Quang,Cao Bằng,22.916984,105.419755,999,6.742710583,148.16,0,12,0,0,0,0,0,0,0,0,0,0,0,0
1660,Nam Tuấn,4,Cao Bằng,NO,Nam Tuấn,Cao Bằng,Nam Tuấn,Cao Bằng,22.801367,106.108762,1606,13.42136052,119.66,0,20,0,0,0,0,0,0,0,0,0,0,0,0
1726,Nguyên Bình,4,Cao Bằng,NO,Nguyên Bình,Cao Bằng,Nguyên Bình,Cao Bằng,22.671446,105.982672,9138,91.62739396,99.73,0,114,0,0,0,0,0,0,0,0,0,0,0,0
1699,Nguyễn Huệ,4,Cao Bằng,NO,Nguyễn Huệ,Cao Bằng,Nguyễn Huệ,Cao Bằng,22.686358,106.305976,9208,62.72479564,146.8,0,115,0,0,0,0,0,0,0,0,0,0,0,0
1279,Nùng Trí Cao,4,Cao Bằng,NO,Nùng Trí Cao,Cao Bằng,Nùng Trí Cao,Cao Bằng,22.687401,106.249074,19212,655.4759468,29.31,0,240,0,0,0,0,0,0,0,0,0,0,0,0
1768,Phan Thanh,4,Cao Bằng,NO,Phan Thanh,Cao Bằng,Phan Thanh,Cao Bằng,22.608029,105.80987,6547,47.4111087,138.09,0,81,0,0,0,0,0,0,0,0,0,0,0,0
1648,Phục Hòa,4,Cao Bằng,NO,Phục Hòa,Cao Bằng,Phục Hòa,Cao Bằng,22.521389,106.537673,14122,115.0937245,122.7,0,176,0,0,0,0,0,0,0,0,0,0,0,0
1456,Quang Hán,4,Cao Bằng,NO,Quang Hán,Cao Bằng,Quang Hán,Cao Bằng,22.83377,106.264816,6813,72.78068582,93.61,0,85,0,0,0,0,0,0,0,0,0,0,0,0
1304,Quảng Lâm,4,Cao Bằng,NO,Quảng Lâm_01304,Cao Bằng,Quảng Lâm_01304,Cao Bằng,22.855423,105.365572,15015,86.82703984,172.93,0,187,0,0,0,0,0,0,0,0,0,0,0,0
1552,Quang Long,4,Cao Bằng,NO,Quang Long,Cao Bằng,Quang Long,Cao Bằng,22.737569,106.684344,5671,43.57280061,130.15,0,70,0,0,0,0,0,0,0,0,0,0,0,0
1465,Quang Trung,4,Cao Bằng,NO,Quang Trung_01465,Cao Bằng,Quang Trung_01465,Cao Bằng,22.834483,106.393316,5885,71.24697337,82.6,0,73,0,0,0,0,0,0,0,0,0,0,0,0
1576,Quảng Uyên,4,Cao Bằng,NO,Quảng Uyên,Cao Bằng,Quảng Uyên,Cao Bằng,22.716454,106.407187,16338,127.5907848,128.05,0,204,0,0,0,0,0,0,0,0,0,0,0,0
1360,Sơn Lộ,4,Cao Bằng,NO,Sơn Lộ,Cao Bằng,Sơn Lộ,Cao Bằng,22.729368,105.662417,5494,56.41815568,97.38,0,68,0,0,0,0,0,0,0,0,0,0,0,0
1774,Tam Kim,4,Cao Bằng,NO,Tam Kim,Cao Bằng,Tam Kim,Cao Bằng,22.587501,106.024746,5775,35.6900068,161.81,0,72,0,0,0,0,0,0,0,0,0,0,0,0
1288,Tân Giang,4,Cao Bằng,NO,Tân Giang,Cao Bằng,Tân Giang,Cao Bằng,22.618148,106.26896,17929,212.7818657,84.26,0,224,0,0,0,0,0,0,0,0,0,0,0,0
1807,Thạch An,4,Cao Bằng,NO,Thạch An,Cao Bằng,Thạch An,Cao Bằng,22.488993,106.409238,7474,65.71127132,113.74,0,93,0,0,0,0,0,0,0,0,0,0,0,0
1777,Thành Công,4,Cao Bằng,NO,Thành Công_01777,Cao Bằng,Thành Công_01777,Cao Bằng,22.567611,105.877356,5060,35.9809429,140.63,0,63,0,0,0,0,0,0,0,0,0,0,0,0
1387,Thanh Long,4,Cao Bằng,NO,Thanh Long,Cao Bằng,Thanh Long,Cao Bằng,22.763035,105.942956,8058,67.9312089,118.62,0,100,0,0,0,0,0,0,0,0,0,0,0,0
1363,Thông Nông,4,Cao Bằng,NO,Thông Nông,Cao Bằng,Thông Nông,Cao Bằng,22.78863,106.001199,9315,98.79096405,94.29,0,116,0,0,0,0,0,0,0,0,0,0,0,0
1273,Thục Phán,4,Cao Bằng,NO,Thục Phán,Cao Bằng,Thục Phán,Cao Bằng,22.67726,106.187063,40535,731.1507937,55.44,0,506,0,0,0,0,0,0,0,0,0,0,0,0
1729,Tĩnh Túc,4,Cao Bằng,NO,Tĩnh Túc,Cao Bằng,Tĩnh Túc,Cao Bằng,22.696,105.892308,576,6.636709298,86.79,0,7,0,0,0,0,0,0,0,0,0,0,0,0
1414,Tổng Cọt,4,Cao Bằng,NO,Tổng Cọt,Cao Bằng,Tổng Cọt,Cao Bằng,22.940781,106.181979,6750,67.17754777,100.48,0,84,0,0,0,0,0,0,0,0,0,0,0,0
1447,Trà Lĩnh,4,Cao Bằng,NO,Trà Lĩnh,Cao Bằng,Trà Lĩnh,Cao Bằng,22.7866,106.329105,10642,141.9501134,74.97,0,133,0,0,0,0,0,0,0,0,0,0,0,0
1477,Trùng Khánh,4,Cao Bằng,NO,Trùng Khánh,Cao Bằng,Trùng Khánh,Cao Bằng,22.838832,106.502492,17579,140.0717131,125.5,0,219,0,0,0,0,0,0,0,0,0,0,0,0
1392,Trường Hà,4,Cao Bằng,NO,Trường Hà,Cao Bằng,Trường Hà,Cao Bằng,22.909177,106.021587,12544,87.53663643,143.3,0,156,0,0,0,0,0,0,0,0,0,0,0,0
1561,Vinh Quý,4,Cao Bằng,NO,Vinh Quý,Cao Bằng,Vinh Quý,Cao Bằng,22.674939,106.618361,682,4.767563789,143.05,0,8,0,0,0,0,0,0,0,0,0,0,0,0
1339,Xuân Trường,4,Cao Bằng,NO,Xuân Trường_01339,Cao Bằng,Xuân Trường_01339,Cao Bằng,22.89349,105.816761,5583,45.41978523,122.92,0,69,0,0,0,0,0,0,0,0,0,0,0,0
1318,Yên Thổ,4,Cao Bằng,NO,Yên Thổ,Cao Bằng,Yên Thổ,Cao Bằng,22.712024,105.530855,1262,7.52668933,167.67,0,15,0,0,0,0,0,0,0,0,0,0,0,0
2512,An Tường,8,Tuyên Quang,NO,An Tường,Tuyên Quang,An Tường,Tuyên Quang,21.775181,105.239525,42303,791.5980539,53.44,0,528,0,0,0,0,0,0,0,0,0,0,0,0
991,Bắc Mê,8,Tuyên Quang,NO,Bắc Mê,Tuyên Quang,Bắc Mê,Tuyên Quang,22.764669,105.379389,12846,83.25340246,154.3,0,160,0,0,0,0,0,0,0,0,0,0,0,0
1153,Bắc Quang,8,Tuyên Quang,NO,Bắc Quang,Tuyên Quang,Bắc Quang,Tuyên Quang,22.417047,104.829593,33136,233.4672021,141.93,0,414,0,0,0,0,0,0,0,0,0,0,0,0
832,Bạch Đích,8,Tuyên Quang,NO,Bạch Đích,Tuyên Quang,Bạch Đích,Tuyên Quang,23.200497,105.015592,12554,131.9113166,95.17,0,156,0,0,0,0,0,0,0,0,0,0,0,0
976,Bạch Ngọc,8,Tuyên Quang,NO,Bạch Ngọc_00976,Tuyên Quang,Bạch Ngọc_00976,Tuyên Quang,22.581679,105.06163,28583,395.8864266,72.2,0,357,0,0,0,0,0,0,0,0,0,0,0,0
2380,Bạch Xa,8,Tuyên Quang,NO,Bạch Xa,Tuyên Quang,Bạch Xa,Tuyên Quang,22.26445,104.955292,15078,118.3423593,127.41,0,188,0,0,0,0,0,0,0,0,0,0,0,0
1024,Bản Máy,8,Tuyên Quang,NO,Bản Máy,Tuyên Quang,Bản Máy,Tuyên Quang,22.798952,104.593201,9644,126.6115268,76.17,0,120,0,0,0,0,0,0,0,0,0,0,0,0
1180,Bằng Hành,8,Tuyên Quang,NO,Bằng Hành,Tuyên Quang,Bằng Hành,Tuyên Quang,22.400555,104.941511,1631,10.75006591,151.72,0,20,0,0,0,0,0,0,0,0,0,0,0,0
1246,Bằng Lang,8,Tuyên Quang,NO,Bằng Lang,Tuyên Quang,Bằng Lang,Tuyên Quang,22.362589,104.664292,11983,103.6053951,115.66,0,149,0,0,0,0,0,0,0,0,0,0,0,0
2296,Bình An,8,Tuyên Quang,NO,Bình An_02296,Tuyên Quang,Bình An_02296,Tuyên Quang,22.408814,105.191506,58577,797.7257252,73.43,0,732,0,0,0,0,0,0,0,0,0,0,0,0
2548,Bình Ca,8,Tuyên Quang,NO,Bình Ca,Tuyên Quang,Bình Ca,Tuyên Quang,21.725768,105.3081,23971,345.0057571,69.48,0,299,0,0,0,0,0,0,0,0,0,0,0,0
2524,Bình Thuận,8,Tuyên Quang,NO,Bình Thuận_02524,Tuyên Quang,Bình Thuận_02524,Tuyên Quang,21.721472,105.224133,47135,1043.733392,45.16,0,589,0,0,0,0,0,0,0,0,0,0,0,0
2404,Bình Xa,8,Tuyên Quang,NO,Bình Xa,Tuyên Quang,Bình Xa,Tuyên Quang,22.105723,105.125516,17726,194.4279917,91.17,0,221,0,0,0,0,0,0,0,0,0,0,0,0
883,Cán Tỷ,8,Tuyên Quang,NO,Cán Tỷ,Tuyên Quang,Cán Tỷ,Tuyên Quang,23.127152,105.006381,9676,113.6614589,85.13,0,120,0,0,0,0,0,0,0,0,0,0,0,0
952,Cao Bồ,8,Tuyên Quang,NO,Cao Bồ,Tuyên Quang,Cao Bồ,Tuyên Quang,22.752703,104.882452,4147,37.29987408,111.18,0,51,0,0,0,0,0,0,0,0,0,0,0,0
2287,Chiêm Hoá,8,Tuyên Quang,NO,Chiêm Hoá,Tuyên Quang,Chiêm Hoá,Tuyên Quang,22.145148,105.28725,29871,268.4551092,111.27,0,373,0,0,0,0,0,0,0,0,0,0,0,0
2245,Côn Lôn,8,Tuyên Quang,NO,Côn Lôn,Tuyên Quang,Côn Lôn,Tuyên Quang,22.54757,105.421067,5647,35.12689724,160.76,0,70,0,0,0,0,0,0,0,0,0,0,0,0
1165,Đồng Tâm,8,Tuyên Quang,NO,Đồng Tâm_01165,Tuyên Quang,Đồng Tâm_01165,Tuyên Quang,22.503265,104.983589,35036,140.8199357,248.8,0,437,0,0,0,0,0,0,0,0,0,0,0,0
2572,Đông Thọ,8,Tuyên Quang,NO,Đông Thọ,Tuyên Quang,Đông Thọ,Tuyên Quang,21.651036,105.284343,17812,237.9374833,74.86,0,222,0,0,0,0,0,0,0,0,0,0,0,0
721,Đồng Văn,8,Tuyên Quang,NO,Đồng Văn_00721,Tuyên Quang,Đồng Văn_00721,Tuyên Quang,23.256895,105.342508,25622,209.1762593,122.49,0,320,0,0,0,0,0,0,0,0,0,0,0,0
1216,Đồng Yên,8,Tuyên Quang,NO,Đồng Yên,Tuyên Quang,Đồng Yên,Tuyên Quang,22.223576,104.79328,18049,227.4319556,79.36,0,225,0,0,0,0,0,0,0,0,0,0,0,0
871,Du Già,8,Tuyên Quang,NO,Du Già,Tuyên Quang,Du Già,Tuyên Quang,22.923306,105.246096,15590,122.8139278,126.94,0,194,0,0,0,0,0,0,0,0,0,0,0,0
1012,Đường Hồng,8,Tuyên Quang,NO,Đường Hồng,Tuyên Quang,Đường Hồng,Tuyên Quang,22.680185,105.468107,11469,84.69206912,135.42,0,143,0,0,0,0,0,0,0,0,0,0,0,0
865,Đường Thượng,8,Tuyên Quang,NO,Đường Thượng,Tuyên Quang,Đường Thượng,Tuyên Quang,22.98557,105.207306,14159,137.1331719,103.25,0,176,0,0,0,0,0,0,0,0,0,0,0,0
985,Giáp Trung,8,Tuyên Quang,NO,Giáp Trung,Tuyên Quang,Giáp Trung,Tuyên Quang,22.803988,105.291036,613,8.373173064,73.21,0,7,0,0,0,0,0,0,0,0,0,0,0,0
694,Hà Giang 1,8,Tuyên Quang,NO,Hà Giang 1,Tuyên Quang,Hà Giang 1,Tuyên Quang,22.80748,104.921969,21325,257.8909179,82.69,0,266,0,0,0,0,0,0,0,0,0,0,0,0
691,Hà Giang 2,8,Tuyên Quang,NO,Hà Giang 2,Tuyên Quang,Hà Giang 2,Tuyên Quang,22.857953,104.973826,326,5.377763114,60.62,0,4,0,0,0,0,0,0,0,0,0,0,0,0
2374,Hàm Yên,8,Tuyên Quang,NO,Hàm Yên,Tuyên Quang,Hàm Yên,Tuyên Quang,22.033998,105.023702,29062,230.3035106,126.19,0,363,0,0,0,0,0,0,0,0,0,0,0,0
1084,Hồ Thầu,8,Tuyên Quang,NO,Hồ Thầu,Tuyên Quang,Hồ Thầu,Tuyên Quang,22.602949,104.655131,8577,62.68362201,136.83,0,107,0,0,0,0,0,0,0,0,0,0,0,0
2353,Hòa An,8,Tuyên Quang,NO,Hòa An_02353,Tuyên Quang,Hòa An_02353,Tuyên Quang,22.091407,105.245971,32439,526.436222,61.62,0,405,0,0,0,0,0,0,0,0,0,0,0,0
1021,Hoàng Su Phì,8,Tuyên Quang,NO,Hoàng Su Phì,Tuyên Quang,Hoàng Su Phì,Tuyên Quang,22.730618,104.671441,15409,177.830352,86.65,0,192,0,0,0,0,0,0,0,0,0,0,0,0
2608,Hồng Sơn,8,Tuyên Quang,NO,Hồng Sơn_02608,Tuyên Quang,Hồng Sơn_02608,Tuyên Quang,21.588774,105.281937,29424,155.6743029,189.01,0,367,0,0,0,0,0,0,0,0,0,0,0,0
2260,Hồng Thái,8,Tuyên Quang,NO,Hồng Thái_02260,Tuyên Quang,Hồng Thái_02260,Tuyên Quang,22.422928,105.503485,24671,242.7292405,101.64,0,308,0,0,0,0,0,0,0,0,0,0,0,0
1201,Hùng An,8,Tuyên Quang,NO,Hùng An,Tuyên Quang,Hùng An,Tuyên Quang,22.331969,104.840491,16964,143.0716033,118.57,0,212,0,0,0,0,0,0,0,0,0,0,0,0
2425,Hùng Đức,8,Tuyên Quang,NO,Hùng Đức,Tuyên Quang,Hùng Đức,Tuyên Quang,21.890086,105.064863,10211,160.4746189,63.63,0,127,0,0,0,0,0,0,0,0,0,0,0,0
2455,Hùng Lợi,8,Tuyên Quang,NO,Hùng Lợi,Tuyên Quang,Hùng Lợi,Tuyên Quang,21.928006,105.483627,10718,63.44639792,168.93,0,133,0,0,0,0,0,0,0,0,0,0,0,0
802,Khâu Vai,8,Tuyên Quang,NO,Khâu Vai,Tuyên Quang,Khâu Vai,Tuyên Quang,23.111976,105.491203,22411,208.5520194,107.46,0,280,0,0,0,0,0,0,0,0,0,0,0,0
1147,Khuôn Lùng,8,Tuyên Quang,NO,Khuôn Lùng,Tuyên Quang,Khuôn Lùng,Tuyên Quang,22.51924,104.51129,790,6.568007981,120.28,0,9,0,0,0,0,0,0,0,0,0,0,0,0
2332,Kiên Đài,8,Tuyên Quang,NO,Kiên Đài,Tuyên Quang,Kiên Đài,Tuyên Quang,22.132084,105.414122,9210,70.40207919,130.82,0,115,0,0,0,0,0,0,0,0,0,0,0,0
2437,Kiến Thiết,8,Tuyên Quang,NO,Kiến Thiết,Tuyên Quang,Kiến Thiết,Tuyên Quang,21.971789,105.337189,6681,61.02484472,109.48,0,83,0,0,0,0,0,0,0,0,0,0,0,0
2350,Kim Bình,8,Tuyên Quang,NO,Kim Bình,Tuyên Quang,Kim Bình,Tuyên Quang,22.07711,105.312375,16618,180.4539038,92.09,0,207,0,0,0,0,0,0,0,0,0,0,0,0
2266,Lâm Bình,8,Tuyên Quang,NO,Lâm Bình,Tuyên Quang,Lâm Bình,Tuyên Quang,22.546926,105.185905,12212,37.27147871,327.65,0,152,0,0,0,0,0,0,0,0,0,0,0,0
937,Lao Chải,8,Tuyên Quang,NO,Lao Chải_00937,Tuyên Quang,Lao Chải_00937,Tuyên Quang,22.854501,104.781031,9982,63.181214,157.99,0,124,0,0,0,0,0,0,0,0,0,0,0,0
1192,Liên Hiệp,8,Tuyên Quang,NO,Liên Hiệp,Tuyên Quang,Liên Hiệp,Tuyên Quang,22.378768,105.026617,10406,62.4347513,166.67,0,130,0,0,0,0,0,0,0,0,0,0,0,0
970,Linh Hồ,8,Tuyên Quang,NO,Linh Hồ,Tuyên Quang,Linh Hồ,Tuyên Quang,22.630654,105.005959,21397,117.9287919,181.44,0,267,0,0,0,0,0,0,0,0,0,0,0,0
2434,Lực Hành,8,Tuyên Quang,NO,Lực Hành,Tuyên Quang,Lực Hành,Tuyên Quang,22.009552,105.192429,10856,123.4057065,87.97,0,135,0,0,0,0,0,0,0,0,0,0,0,0
715,Lũng Cú,8,Tuyên Quang,NO,Lũng Cú,Tuyên Quang,Lũng Cú,Tuyên Quang,23.32631,105.310819,14887,156.3760504,95.2,0,186,0,0,0,0,0,0,0,0,0,0,0,0
763,Lũng Phìn,8,Tuyên Quang,NO,Lũng Phìn,Tuyên Quang,Lũng Phìn,Tuyên Quang,23.140344,105.261656,16227,233.6164699,69.46,0,202,0,0,0,0,0,0,0,0,0,0,0,0
901,Lùng Tám,8,Tuyên Quang,NO,Lùng Tám,Tuyên Quang,Lùng Tám,Tuyên Quang,23.013182,105.079658,10805,87.03882713,124.14,0,135,0,0,0,0,0,0,0,0,0,0,0,0
847,Mậu Duệ,8,Tuyên Quang,NO,Mậu Duệ,Tuyên Quang,Mậu Duệ,Tuyên Quang,23.060411,105.234326,18718,114.6163738,163.31,0,233,0,0,0,0,0,0,0,0,0,0,0,0
769,Mèo Vạc,8,Tuyên Quang,NO,Mèo Vạc,Tuyên Quang,Mèo Vạc,Tuyên Quang,23.180819,105.410193,19378,210.1507429,92.21,0,242,0,0,0,0,0,0,0,0,0,0,0,0
994,Minh Ngọc,8,Tuyên Quang,NO,Minh Ngọc,Tuyên Quang,Minh Ngọc,Tuyên Quang,22.723493,105.1919,7759,48.69461529,159.34,0,96,0,0,0,0,0,0,0,0,0,0,0,0
2302,Minh Quang,8,Tuyên Quang,NO,Minh Quang,Tuyên Quang,Minh Quang,Tuyên Quang,22.357895,105.127021,19818,103.5747883,191.34,0,247,0,0,0,0,0,0,0,0,0,0,0,0
982,Minh Sơn,8,Tuyên Quang,NO,Minh Sơn_00982,Tuyên Quang,Minh Sơn_00982,Tuyên Quang,22.848103,105.208036,28944,353.9684481,81.77,0,361,0,0,0,0,0,0,0,0,0,0,0,0
919,Minh Tân,8,Tuyên Quang,NO,Minh Tân_00919,Tuyên Quang,Minh Tân_00919,Tuyên Quang,22.969581,104.91298,7372,69.74456008,105.7,0,92,0,0,0,0,0,0,0,0,0,0,0,0
2554,Minh Thanh,8,Tuyên Quang,NO,Minh Thanh,Tuyên Quang,Minh Thanh,Tuyên Quang,21.760125,105.401438,13250,168.6394298,78.57,0,165,0,0,0,0,0,0,0,0,0,0,0,0
2215,Minh Xuân,8,Tuyên Quang,NO,Minh Xuân,Tuyên Quang,Minh Xuân,Tuyên Quang,21.828902,105.190824,71,2.034383954,34.9,0,0,0,0,0,0,0,0,0,0,0,0,0,0
2509,Mỹ Lâm,8,Tuyên Quang,NO,Mỹ Lâm,Tuyên Quang,Mỹ Lâm,Tuyên Quang,21.764478,105.125357,30971,386.1720698,80.2,0,387,0,0,0,0,0,0,0,0,0,0,0,0
2221,Nà Hang,8,Tuyên Quang,NO,Nà Hang,Tuyên Quang,Nà Hang,Tuyên Quang,22.346464,105.357477,17102,66.66666667,256.53,0,213,0,0,0,0,0,0,0,0,0,0,0,0
1141,Nấm Dẩn,8,Tuyên Quang,NO,Nấm Dẩn,Tuyên Quang,Nấm Dẩn,Tuyên Quang,22.63147,104.520647,11749,136.4417605,86.11,0,146,0,0,0,0,0,0,0,0,0,0,0,0
1075,Nậm Dịch,8,Tuyên Quang,NO,Nậm Dịch,Tuyên Quang,Nậm Dịch,Tuyên Quang,22.628624,104.758327,841,8.600940888,97.78,0,10,0,0,0,0,0,0,0,0,0,0,0,0
889,Nghĩa Thuận,8,Tuyên Quang,NO,Nghĩa Thuận,Tuyên Quang,Nghĩa Thuận,Tuyên Quang,23.128547,104.924143,98,1.223165252,80.12,0,1,0,0,0,0,0,0,0,0,0,0,0,0
700,Ngọc Đường,8,Tuyên Quang,NO,Ngọc Đường,Tuyên Quang,Ngọc Đường,Tuyên Quang,22.809928,105.114111,7739,78.91302131,98.07,0,96,0,0,0,0,0,0,0,0,0,0,0,0
859,Ngọc Long,8,Tuyên Quang,NO,Ngọc Long,Tuyên Quang,Ngọc Long,Tuyên Quang,22.991101,105.325554,9838,116.7576549,84.26,0,122,0,0,0,0,0,0,0,0,0,0,0,0
2530,Nhữ Khê,8,Tuyên Quang,NO,Nhữ Khê,Tuyên Quang,Nhữ Khê,Tuyên Quang,21.701238,105.174399,21470,363.6517615,59.04,0,268,0,0,0,0,0,0,0,0,0,0,0,0
817,Niêm Sơn,8,Tuyên Quang,NO,Niêm Sơn,Tuyên Quang,Niêm Sơn,Tuyên Quang,23.028843,105.434606,12070,147.6813899,81.73,0,150,0,0,0,0,0,0,0,0,0,0,0,0
2212,Nông Tiến,8,Tuyên Quang,NO,Nông Tiến,Tuyên Quang,Nông Tiến,Tuyên Quang,21.833305,105.231879,15160,561.6895146,26.99,0,189,0,0,0,0,0,0,0,0,0,0,0,0
1096,Pà Vầy Sủ,8,Tuyên Quang,NO,Pà Vầy Sủ,Tuyên Quang,Pà Vầy Sủ,Tuyên Quang,22.668049,104.43669,15567,186.8787515,83.3,0,194,0,0,0,0,0,0,0,0,0,0,0,0
745,Phố Bảng,8,Tuyên Quang,NO,Phố Bảng,Tuyên Quang,Phố Bảng,Tuyên Quang,23.223031,105.169538,15357,197.619354,77.71,0,191,0,0,0,0,0,0,0,0,0,0,0,0
706,Phú Linh,8,Tuyên Quang,NO,Phú Linh,Tuyên Quang,Phú Linh,Tuyên Quang,22.750435,105.06741,1208,10.75020023,112.37,0,15,0,0,0,0,0,0,0,0,0,0,0,0
2611,Phú Lương,8,Tuyên Quang,NO,Phú Lương_02611,Tuyên Quang,Phú Lương_02611,Tuyên Quang,21.545265,105.395067,43251,384.8296112,112.39,0,540,0,0,0,0,0,0,0,0,0,0,0,0
2392,Phù Lưu,8,Tuyên Quang,NO,Phù Lưu,Tuyên Quang,Phù Lưu,Tuyên Quang,22.180364,105.030809,15910,132.0880033,120.45,0,198,0,0,0,0,0,0,0,0,0,0,0,0
1057,Pờ Ly Ngài,8,Tuyên Quang,NO,Pờ Ly Ngài,Tuyên Quang,Pờ Ly Ngài,Tuyên Quang,22.704655,104.627916,6145,124.5439805,49.34,0,76,0,0,0,0,0,0,0,0,0,0,0,0
874,Quản Bạ,8,Tuyên Quang,NO,Quản Bạ,Tuyên Quang,Quản Bạ,Tuyên Quang,23.012263,104.97892,18158,176.5140469,102.87,0,226,0,0,0,0,0,0,0,0,0,0,0,0
1237,Quang Bình,8,Tuyên Quang,NO,Quang Bình,Tuyên Quang,Quang Bình,Tuyên Quang,22.4477,104.578259,10474,80.48255725,130.14,0,130,0,0,0,0,0,0,0,0,0,0,0,0
1144,Quảng Nguyên,8,Tuyên Quang,NO,Quảng Nguyên,Tuyên Quang,Quảng Nguyên,Tuyên Quang,22.589458,104.569944,5859,58.89626055,99.48,0,73,0,0,0,0,0,0,0,0,0,0,0,0
733,Sà Phìn,8,Tuyên Quang,NO,Sà Phìn,Tuyên Quang,Sà Phìn,Tuyên Quang,23.22373,105.24639,16562,198.3473054,83.5,0,207,0,0,0,0,0,0,0,0,0,0,0,0
2536,Sơn Dương,8,Tuyên Quang,NO,Sơn Dương,Tuyên Quang,Sơn Dương,Tuyên Quang,21.688938,105.416162,41320,335.4712998,123.17,0,516,0,0,0,0,0,0,0,0,0,0,0,0
2620,Sơn Thủy,8,Tuyên Quang,NO,Sơn Thủy_02620,Tuyên Quang,Sơn Thủy_02620,Tuyên Quang,21.568299,105.493016,12467,130.1764644,95.77,0,155,0,0,0,0,0,0,0,0,0,0,0,0
778,Sơn Vĩ,8,Tuyên Quang,NO,Sơn Vĩ,Tuyên Quang,Sơn Vĩ,Tuyên Quang,23.211583,105.475342,19673,177.8430664,110.62,0,245,0,0,0,0,0,0,0,0,0,0,0,0
787,Sủng Máng,8,Tuyên Quang,NO,Sủng Máng,Tuyên Quang,Sủng Máng,Tuyên Quang,23.157176,105.33976,12378,162.5476034,76.15,0,154,0,0,0,0,0,0,0,0,0,0,0,0
2320,Tân An,8,Tuyên Quang,NO,Tân An_02320,Tuyên Quang,Tân An_02320,Tuyên Quang,22.22624,105.136469,41289,1016.72002,40.61,0,516,0,0,0,0,0,0,0,0,0,0,0,0
2470,Tân Long,8,Tuyên Quang,NO,Tân Long_02470,Tuyên Quang,Tân Long_02470,Tuyên Quang,21.893066,105.264153,34956,342.3031727,102.12,0,436,0,0,0,0,0,0,0,0,0,0,0,0
2308,Tân Mỹ,8,Tuyên Quang,NO,Tân Mỹ_02308,Tuyên Quang,Tân Mỹ_02308,Tuyên Quang,22.264668,105.197844,24272,236.6383933,102.57,0,303,0,0,0,0,0,0,0,0,0,0,0,0
1171,Tân Quang,8,Tuyên Quang,NO,Tân Quang,Tuyên Quang,Tân Quang,Tuyên Quang,22.544598,104.857661,12237,70.27104628,174.14,0,152,0,0,0,0,0,0,0,0,0,0,0,0
2578,Tân Thanh,8,Tuyên Quang,NO,Tân Thanh_02578,Tuyên Quang,Tân Thanh_02578,Tuyên Quang,21.626557,105.445328,17842,155.8253275,114.5,0,223,0,0,0,0,0,0,0,0,0,0,0,0
1051,Tân Tiến,8,Tuyên Quang,NO,Tân Tiến_01051,Tuyên Quang,Tân Tiến_01051,Tuyên Quang,22.746508,104.75671,33480,161.5830116,207.2,0,418,0,0,0,0,0,0,0,0,0,0,0,0
2545,Tân Trào,8,Tuyên Quang,NO,Tân Trào,Tuyên Quang,Tân Trào,Tuyên Quang,21.818059,105.454767,14686,148.9905651,98.57,0,183,0,0,0,0,0,0,0,0,0,0,0,0
1243,Tân Trịnh,8,Tuyên Quang,NO,Tân Trịnh,Tuyên Quang,Tân Trịnh,Tuyên Quang,22.425701,104.709498,1062,9.254901961,114.75,0,13,0,0,0,0,0,0,0,0,0,0,0,0
808,Tát Ngà,8,Tuyên Quang,NO,Tát Ngà,Tuyên Quang,Tát Ngà,Tuyên Quang,23.089781,105.381791,7648,84.41501104,90.6,0,95,0,0,0,0,0,0,0,0,0,0,0,0
2494,Thái Bình,8,Tuyên Quang,NO,Thái Bình_02494,Tuyên Quang,Thái Bình_02494,Tuyên Quang,21.800234,105.302943,8220,26.92874693,305.25,0,102,0,0,0,0,0,0,0,0,0,0,0,0
2419,Thái Hòa,8,Tuyên Quang,NO,Thái Hòa_02419,Tuyên Quang,Thái Hòa_02419,Tuyên Quang,21.967486,105.115531,23581,813.137931,29,0,294,0,0,0,0,0,0,0,0,0,0,0,0
2407,Thái Sơn,8,Tuyên Quang,NO,Thái Sơn,Tuyên Quang,Thái Sơn,Tuyên Quang,21.994699,105.070517,16137,172.5144323,93.54,0,201,0,0,0,0,0,0,0,0,0,0,0,0
829,Thắng Mố,8,Tuyên Quang,NO,Thắng Mố,Tuyên Quang,Thắng Mố,Tuyên Quang,23.191671,105.111842,16149,238.608156,67.68,0,201,0,0,0,0,0,0,0,0,0,0,0,0
1033,Thàng Tín,8,Tuyên Quang,NO,Thàng Tín,Tuyên Quang,Thàng Tín,Tuyên Quang,22.7979,104.683731,7523,106.2870867,70.78,0,94,0,0,0,0,0,0,0,0,0,0,0,0
928,Thanh Thuỷ,8,Tuyên Quang,NO,Thanh Thuỷ,Tuyên Quang,Thanh Thuỷ,Tuyên Quang,22.874459,104.882408,6297,61.91131649,101.71,0,78,0,0,0,0,0,0,0,0,0,0,0,0
1090,Thông Nguyên,8,Tuyên Quang,NO,Thông Nguyên,Tuyên Quang,Thông Nguyên,Tuyên Quang,22.527289,104.748972,6161,56.67893284,108.7,0,77,0,0,0,0,0,0,0,0,0,0,0,0
922,Thuận Hòa,8,Tuyên Quang,NO,Thuận Hòa_00922,Tuyên Quang,Thuận Hòa_00922,Tuyên Quang,22.932677,105.015778,29395,640.9725251,45.86,0,367,0,0,0,0,0,0,0,0,0,0,0,0
2269,Thượng Lâm,8,Tuyên Quang,NO,Thượng Lâm,Tuyên Quang,Thượng Lâm,Tuyên Quang,22.526921,105.312391,9737,35.13133208,277.16,0,121,0,0,0,0,0,0,0,0,0,0,0,0
2239,Thượng Nông,8,Tuyên Quang,NO,Thượng Nông,Tuyên Quang,Thượng Nông,Tuyên Quang,22.58444,105.487332,7095,88.87636227,79.83,0,88,0,0,0,0,0,0,0,0,0,0,0,0
958,Thượng Sơn,8,Tuyên Quang,NO,Thượng Sơn,Tuyên Quang,Thượng Sơn,Tuyên Quang,22.664776,104.82733,6051,42.43338008,142.6,0,75,0,0,0,0,0,0,0,0,0,0,0,0
1225,Tiên Nguyên,8,Tuyên Quang,NO,Tiên Nguyên,Tuyên Quang,Tiên Nguyên,Tuyên Quang,22.489336,104.688477,4951,54.93176523,90.13,0,61,0,0,0,0,0,0,0,0,0,0,0,0
1261,Tiên Yên,8,Tuyên Quang,NO,Tiên Yên_01261,Tuyên Quang,Tiên Yên_01261,Tuyên Quang,22.28126,104.720006,14026,144.3301091,97.18,0,175,0,0,0,0,0,0,0,0,0,0,0,0
2359,Tri Phú,8,Tuyên Quang,NO,Tri Phú,Tuyên Quang,Tri Phú,Tuyên Quang,22.023811,105.418816,8555,50.24668155,170.26,0,106,0,0,0,0,0,0,0,0,0,0,0,0
2305,Trung Hà,8,Tuyên Quang,NO,Trung Hà,Tuyên Quang,Trung Hà,Tuyên Quang,22.28962,105.089166,8178,79.25954642,103.18,0,102,0,0,0,0,0,0,0,0,0,0,0,0
2458,Trung Sơn,8,Tuyên Quang,NO,Trung Sơn_02458,Tuyên Quang,Trung Sơn_02458,Tuyên Quang,21.86756,105.37385,3205,41.72633772,76.81,0,40,0,0,0,0,0,0,0,0,0,0,0,0
1117,Trung Thịnh,8,Tuyên Quang,NO,Trung Thịnh,Tuyên Quang,Trung Thịnh,Tuyên Quang,22.688741,104.547814,12092,167.6882541,72.11,0,151,0,0,0,0,0,0,0,0,0,0,0,0
2623,Trường Sinh,8,Tuyên Quang,NO,Trường Sinh,Tuyên Quang,Trường Sinh,Tuyên Quang,21.562482,105.316022,17349,325.1311844,53.36,0,216,0,0,0,0,0,0,0,0,0,0,0,0
925,Tùng Bá,8,Tuyên Quang,NO,Tùng Bá,Tuyên Quang,Tùng Bá,Tuyên Quang,22.89707,105.09916,8101,67.23379534,120.49,0,101,0,0,0,0,0,0,0,0,0,0,0,0
892,Tùng Vài,8,Tuyên Quang,NO,Tùng Vài,Tuyên Quang,Tùng Vài,Tuyên Quang,23.052929,104.878833,11051,73.68315775,149.98,0,138,0,0,0,0,0,0,0,0,0,0,0,0
913,Vị Xuyên,8,Tuyên Quang,NO,Vị Xuyên,Tuyên Quang,Vị Xuyên,Tuyên Quang,22.685503,104.96806,23537,292.6031825,80.44,0,294,0,0,0,0,0,0,0,0,0,0,0,0
967,Việt Lâm,8,Tuyên Quang,NO,Việt Lâm,Tuyên Quang,Việt Lâm,Tuyên Quang,22.660214,104.92173,6322,68.22793007,92.66,0,79,0,0,0,0,0,0,0,0,0,0,0,0
1156,Vĩnh Tuy,8,Tuyên Quang,NO,Vĩnh Tuy_01156,Tuyên Quang,Vĩnh Tuy_01156,Tuyên Quang,22.249711,104.876092,36302,313.3264284,115.86,0,453,0,0,0,0,0,0,0,0,0,0,0,0
1108,Xín Mần,8,Tuyên Quang,NO,Xín Mần,Tuyên Quang,Xín Mần,Tuyên Quang,22.747618,104.521238,19300,154.1041201,125.24,0,241,0,0,0,0,0,0,0,0,0,0,0,0
1255,Xuân Giang,8,Tuyên Quang,NO,Xuân Giang_01255,Tuyên Quang,Xuân Giang_01255,Tuyên Quang,22.297771,104.621827,9095,105.6820823,86.06,0,113,0,0,0,0,0,0,0,0,0,0,0,0
2449,Xuân Vân,8,Tuyên Quang,NO,Xuân Vân,Tuyên Quang,Xuân Vân,Tuyên Quang,21.947302,105.231863,1873,17.96642686,104.25,0,23,0,0,0,0,0,0,0,0,0,0,0,0
1006,Yên Cường,8,Tuyên Quang,NO,Yên Cường_01006,Tuyên Quang,Yên Cường_01006,Tuyên Quang,22.668796,105.364501,9594,82.07014542,116.9,0,119,0,0,0,0,0,0,0,0,0,0,0,0
2248,Yên Hoa,8,Tuyên Quang,NO,Yên Hoa,Tuyên Quang,Yên Hoa,Tuyên Quang,22.475908,105.458918,7212,50.14252937,143.83,0,90,0,0,0,0,0,0,0,0,0,0,0,0
2317,Yên Lập,8,Tuyên Quang,NO,Yên Lập_02317,Tuyên Quang,Yên Lập_02317,Tuyên Quang,22.209397,105.38195,29230,423.3164374,69.05,0,365,0,0,0,0,0,0,0,0,0,0,0,0
820,Yên Minh,8,Tuyên Quang,NO,Yên Minh,Tuyên Quang,Yên Minh,Tuyên Quang,23.121446,105.133061,26155,169.0691661,154.7,0,326,0,0,0,0,0,0,0,0,0,0,0,0
2365,Yên Nguyên,8,Tuyên Quang,NO,Yên Nguyên,Tuyên Quang,Yên Nguyên,Tuyên Quang,22.098796,105.186856,15782,162.0994248,97.36,0,197,0,0,0,0,0,0,0,0,0,0,0,0
2398,Yên Phú,8,Tuyên Quang,NO,Yên Phú_02398,Tuyên Quang,Yên Phú_02398,Tuyên Quang,22.137408,104.931885,14738,345.8812485,42.61,0,184,0,0,0,0,0,0,0,0,0,0,0,0
2473,Yên Sơn,8,Tuyên Quang,NO,Yên Sơn_02473,Tuyên Quang,Yên Sơn_02473,Tuyên Quang,21.856444,105.132613,12423,106.5254673,116.62,0,155,0,0,0,0,0,0,0,0,0,0,0,0
1234,Yên Thành,8,Tuyên Quang,NO,Yên Thành_01234,Tuyên Quang,Yên Thành_01234,Tuyên Quang,22.431544,104.519984,4706,123.4198794,38.13,0,58,0,0,0,0,0,0,0,0,0,0,0,0
3301,Búng Lao,11,Điện Biên,NO,Búng Lao,Điện Biên,Búng Lao,Điện Biên,21.547095,103.288397,19360,132.7391155,145.85,0,242,0,0,0,0,0,0,0,0,0,0,0,0
3175,Chà Tở,11,Điện Biên,NO,Chà Tở,Điện Biên,Chà Tở,Điện Biên,21.990482,102.93668,5129,22.50351,227.92,0,64,0,0,0,0,0,0,0,0,0,0,0,0
3283,Chiềng Sinh,11,Điện Biên,NO,Chiềng Sinh_03283,Điện Biên,Chiềng Sinh_03283,Điện Biên,21.609196,103.336769,15139,69.44176873,218.01,0,189,0,0,0,0,0,0,0,0,0,0,0,0
3127,Điện Biên Phủ,11,Điện Biên,NO,Điện Biên Phủ,Điện Biên,Điện Biên Phủ,Điện Biên,21.414301,103.057693,48462,853.9559471,56.75,0,605,0,0,0,0,0,0,0,0,0,0,0,0
3256,Mường Ảng,11,Điện Biên,NO,Mường Ảng,Điện Biên,Mường Ảng,Điện Biên,21.488851,103.221881,17338,201.7454038,85.94,0,216,0,0,0,0,0,0,0,0,0,0,0,0
3166,Mường Chà,11,Điện Biên,NO,Mường Chà,Điện Biên,Mường Chà,Điện Biên,21.979288,102.777355,13674,29.57947564,462.28,0,170,0,0,0,0,0,0,0,0,0,0,0,0
3313,Mường Lạn,11,Điện Biên,NO,Mường Lạn_03313,Điện Biên,Mường Lạn_03313,Điện Biên,21.451482,103.317771,10736,40.53003133,264.89,0,134,0,0,0,0,0,0,0,0,0,0,0,0
3151,Mường Lay,11,Điện Biên,NO,Mường Lay,Điện Biên,Mường Lay,Điện Biên,22.016037,103.178295,17933,80.54345385,222.65,0,224,0,0,0,0,0,0,0,0,0,0,0,0
3214,Mường Luân,11,Điện Biên,NO,Mường Luân,Điện Biên,Mường Luân,Điện Biên,21.24656,103.378863,15770,84.68478144,186.22,0,197,0,0,0,0,0,0,0,0,0,0,0,0
3268,Mường Mùn,11,Điện Biên,NO,Mường Mùn,Điện Biên,Mường Mùn,Điện Biên,21.724842,103.318432,14157,55.99193166,252.84,0,176,0,0,0,0,0,0,0,0,0,0,0,0
3368,Mường Nhà,11,Điện Biên,NO,Mường Nhà,Điện Biên,Mường Nhà,Điện Biên,21.024129,103.171424,9507,20.53347732,463,0,118,0,0,0,0,0,0,0,0,0,0,0,0
3160,Mường Nhé,11,Điện Biên,NO,Mường Nhé,Điện Biên,Mường Nhé,Điện Biên,22.216892,102.420365,23927,48.88348622,489.47,0,299,0,0,0,0,0,0,0,0,0,0,0,0
3325,Mường Phăng,11,Điện Biên,NO,Mường Phăng,Điện Biên,Mường Phăng,Điện Biên,21.472691,103.104402,15820,94.9010198,166.7,0,197,0,0,0,0,0,0,0,0,0,0,0,0
3202,Mường Pồn,11,Điện Biên,NO,Mường Pồn,Điện Biên,Mường Pồn,Điện Biên,21.587031,103.029982,10244,39.58880816,258.76,0,128,0,0,0,0,0,0,0,0,0,0,0,0
3334,Mường Thanh,11,Điện Biên,NO,Mường Thanh,Điện Biên,Mường Thanh,Điện Biên,21.366076,103.034384,25132,911.9013062,27.56,0,314,0,0,0,0,0,0,0,0,0,0,0,0
3163,Mường Toong,11,Điện Biên,NO,Mường Toong,Điện Biên,Mường Toong,Điện Biên,22.183796,102.582108,10668,46.24387706,230.69,0,133,0,0,0,0,0,0,0,0,0,0,0,0
3181,Mường Tùng,11,Điện Biên,NO,Mường Tùng,Điện Biên,Mường Tùng,Điện Biên,21.952534,103.092678,931,3.337754992,278.93,0,11,0,0,0,0,0,0,0,0,0,0,0,0
3176,Nà Bủng,11,Điện Biên,NO,Nà Bủng,Điện Biên,Nà Bủng,Điện Biên,21.725914,102.716271,9961,61.29091804,162.52,0,124,0,0,0,0,0,0,0,0,0,0,0,0
3169,Nà Hỳ,11,Điện Biên,NO,Nà Hỳ,Điện Biên,Nà Hỳ,Điện Biên,21.834392,102.732876,1646,5.971557103,275.64,0,20,0,0,0,0,0,0,0,0,0,0,0,0
3172,Na Sang,11,Điện Biên,NO,Na Sang,Điện Biên,Na Sang,Điện Biên,21.775523,103.061417,19302,53.59433569,360.15,0,241,0,0,0,0,0,0,0,0,0,0,0,0
3203,Na Son,11,Điện Biên,NO,Na Son,Điện Biên,Na Son,Điện Biên,21.297176,103.214412,15099,65.44579775,230.71,0,188,0,0,0,0,0,0,0,0,0,0,0,0
3316,Nà Tấu,11,Điện Biên,NO,Nà Tấu,Điện Biên,Nà Tấu,Điện Biên,21.562422,103.144373,14713,78.03235216,188.55,0,183,0,0,0,0,0,0,0,0,0,0,0,0
3162,Nậm Kè,11,Điện Biên,NO,Nậm Kè,Điện Biên,Nậm Kè,Điện Biên,22.086783,102.594076,8841,39.34579439,224.7,0,110,0,0,0,0,0,0,0,0,0,0,0,0
3194,Nậm Nèn,11,Điện Biên,NO,Nậm Nèn,Điện Biên,Nậm Nèn,Điện Biên,21.804405,103.225811,7383,42.18857143,175,0,92,0,0,0,0,0,0,0,0,0,0,0,0
3358,Núa Ngam,11,Điện Biên,NO,Núa Ngam,Điện Biên,Núa Ngam,Điện Biên,21.179256,103.052558,11626,43.90815016,264.78,0,145,0,0,0,0,0,0,0,0,0,0,0,0
3193,Pa Ham,11,Điện Biên,NO,Pa Ham,Điện Biên,Pa Ham,Điện Biên,21.891328,103.22391,8048,59.24617197,135.84,0,100,0,0,0,0,0,0,0,0,0,0,0,0
3382,Phình Giàng,11,Điện Biên,NO,Phình Giàng,Điện Biên,Phình Giàng,Điện Biên,21.125192,103.224465,10309,45.54048681,226.37,0,128,0,0,0,0,0,0,0,0,0,0,0,0
3370,Pu Nhi,11,Điện Biên,NO,Pu Nhi,Điện Biên,Pu Nhi,Điện Biên,21.345691,103.134486,984,5.429864253,181.22,0,12,0,0,0,0,0,0,0,0,0,0,0,0
3260,Pú Nhung,11,Điện Biên,NO,Pú Nhung,Điện Biên,Pú Nhung,Điện Biên,21.722493,103.490084,12357,58.86247797,209.93,0,154,0,0,0,0,0,0,0,0,0,0,0,0
3295,Quài Tở,11,Điện Biên,NO,Quài Tở,Điện Biên,Quài Tở,Điện Biên,21.541087,103.456957,14662,80.55601341,182.01,0,183,0,0,0,0,0,0,0,0,0,0,0,0
3164,Quảng Lâm,11,Điện Biên,NO,Quảng Lâm_03164,Điện Biên,Quảng Lâm_03164,Điện Biên,21.986041,102.591118,9870,42.31511254,233.25,0,123,0,0,0,0,0,0,0,0,0,0,0,0
3356,Sam Mứn,11,Điện Biên,NO,Sam Mứn,Điện Biên,Sam Mứn,Điện Biên,21.207441,102.948681,8059,51.6205483,156.12,0,100,0,0,0,0,0,0,0,0,0,0,0,0
3244,Sáng Nhè,11,Điện Biên,NO,Sáng Nhè,Điện Biên,Sáng Nhè,Điện Biên,21.846563,103.458536,18918,99.55794127,190.02,0,236,0,0,0,0,0,0,0,0,0,0,0,0
3199,Si Pa Phìn,11,Điện Biên,NO,Si Pa Phìn,Điện Biên,Si Pa Phìn,Điện Biên,21.809437,102.920283,10609,43.90233809,241.65,0,132,0,0,0,0,0,0,0,0,0,0,0,0
3226,Sín Chải,11,Điện Biên,NO,Sín Chải,Điện Biên,Sín Chải,Điện Biên,22.053891,103.348228,12720,67.25532702,189.13,0,159,0,0,0,0,0,0,0,0,0,0,0,0
3158,Sín Thầu,11,Điện Biên,NO,Sín Thầu,Điện Biên,Sín Thầu,Điện Biên,22.396202,102.276332,5966,11.55261221,516.42,0,74,0,0,0,0,0,0,0,0,0,0,0,0
3241,Sính Phình,11,Điện Biên,NO,Sính Phình,Điện Biên,Sính Phình,Điện Biên,21.943611,103.327091,15576,89.24540194,174.53,0,194,0,0,0,0,0,0,0,0,0,0,0,0
3352,Thanh An,11,Điện Biên,NO,Thanh An_03352,Điện Biên,Thanh An_03352,Điện Biên,21.302063,103.038503,24941,182.4239321,136.72,0,311,0,0,0,0,0,0,0,0,0,0,0,0
3328,Thanh Nưa,11,Điện Biên,NO,Thanh Nưa,Điện Biên,Thanh Nưa,Điện Biên,21.422147,102.973268,28953,163.6040007,176.97,0,361,0,0,0,0,0,0,0,0,0,0,0,0
3349,Thanh Yên,11,Điện Biên,NO,Thanh Yên,Điện Biên,Thanh Yên,Điện Biên,21.306495,102.947451,15460,118.8316679,130.1,0,193,0,0,0,0,0,0,0,0,0,0,0,0
3385,Tìa Dình,11,Điện Biên,NO,Tìa Dình,Điện Biên,Tìa Dình,Điện Biên,21.142037,103.337945,7182,43.06788199,166.76,0,89,0,0,0,0,0,0,0,0,0,0,0,0
3217,Tủa Chùa,11,Điện Biên,NO,Tủa Chùa,Điện Biên,Tủa Chùa,Điện Biên,21.822482,103.361511,17548,161.9865227,108.33,0,219,0,0,0,0,0,0,0,0,0,0,0,0
3220,Tủa Thàng,11,Điện Biên,NO,Tủa Thàng,Điện Biên,Tủa Thàng,Điện Biên,22.03095,103.439883,8809,58.36867214,150.92,0,110,0,0,0,0,0,0,0,0,0,0,0,0
3253,Tuần Giáo,11,Điện Biên,NO,Tuần Giáo,Điện Biên,Tuần Giáo,Điện Biên,21.63099,103.444214,23936,220.6286294,108.49,0,299,0,0,0,0,0,0,0,0,0,0,0,0
3208,Xa Dung,11,Điện Biên,NO,Xa Dung,Điện Biên,Xa Dung,Điện Biên,21.318289,103.299565,15485,71.85614849,215.5,0,193,0,0,0,0,0,0,0,0,0,0,0,0
3424,Bản Bo,12,Lai Châu,NO,Bản Bo,Lai Châu,Bản Bo,Lai Châu,22.283004,103.687664,9353,92.76929181,100.82,0,116,0,0,0,0,0,0,0,0,0,0,0,0
3390,Bình Lư,12,Lai Châu,NO,Bình Lư,Lai Châu,Bình Lư,Lai Châu,22.344259,103.672971,18325,105.370594,173.91,0,229,0,0,0,0,0,0,0,0,0,0,0,0
3466,Bum Nưa,12,Lai Châu,NO,Bum Nưa,Lai Châu,Bum Nưa,Lai Châu,22.486994,102.86905,7039,22.33681338,315.13,0,87,0,0,0,0,0,0,0,0,0,0,0,0
3433,Bum Tở,12,Lai Châu,NO,Bum Tở,Lai Châu,Bum Tở,Lai Châu,22.36403,102.782016,11534,30.03098394,384.07,0,144,0,0,0,0,0,0,0,0,0,0,0,0
3571,Dào San,12,Lai Châu,NO,Dào San,Lai Châu,Dào San,Lai Châu,22.667555,103.351354,15879,115.6602812,137.29,0,198,0,0,0,0,0,0,0,0,0,0,0,0
3388,Đoàn Kết,12,Lai Châu,NO,Đoàn Kết_03388,Lai Châu,Đoàn Kết_03388,Lai Châu,22.435283,103.408642,25019,186.2780136,134.31,0,312,0,0,0,0,0,0,0,0,0,0,0,0
3508,Hồng Thu,12,Lai Châu,NO,Hồng Thu,Lai Châu,Hồng Thu,Lai Châu,22.433791,103.281042,13166,73.96629213,178,0,164,0,0,0,0,0,0,0,0,0,0,0,0
3460,Hua Bum,12,Lai Châu,NO,Hua Bum,Lai Châu,Hua Bum,Lai Châu,22.369577,102.987489,5611,15.77364219,355.72,0,70,0,0,0,0,0,0,0,0,0,0,0,0
3640,Khoen On,12,Lai Châu,NO,Khoen On,Lai Châu,Khoen On,Lai Châu,21.770624,103.849496,10516,55.41152914,189.78,0,131,0,0,0,0,0,0,0,0,0,0,0,0
3583,Khổng Lào,12,Lai Châu,NO,Khổng Lào,Lai Châu,Khổng Lào,Lai Châu,22.590748,103.378151,16668,88.60301935,188.12,0,208,0,0,0,0,0,0,0,0,0,0,0,0
3430,Khun Há,12,Lai Châu,NO,Khun Há,Lai Châu,Khun Há,Lai Châu,22.262181,103.572172,9010,60.32808838,149.35,0,112,0,0,0,0,0,0,0,0,0,0,0,0
3487,Lê Lợi,12,Lai Châu,NO,Lê Lợi_03487,Lai Châu,Lê Lợi_03487,Lai Châu,22.184267,103.144541,897,3.110694965,288.36,0,11,0,0,0,0,0,0,0,0,0,0,0,0
3451,Mù Cả,12,Lai Châu,NO,Mù Cả,Lai Châu,Mù Cả,Lai Châu,22.465726,102.486126,3249,8.460056244,384.04,0,40,0,0,0,0,0,0,0,0,0,0,0,0
3601,Mường Khoa,12,Lai Châu,NO,Mường Khoa,Lai Châu,Mường Khoa,Lai Châu,22.221836,103.714969,12340,73.09127525,168.83,0,154,0,0,0,0,0,0,0,0,0,0,0,0
3637,Mường Kim,12,Lai Châu,NO,Mường Kim,Lai Châu,Mường Kim,Lai Châu,21.881591,103.801597,20077,63.47053617,316.32,0,250,0,0,0,0,0,0,0,0,0,0,0,0
3472,Mường Mô,12,Lai Châu,NO,Mường Mô,Lai Châu,Mường Mô,Lai Châu,22.177182,102.850919,7224,18.28120255,395.16,0,90,0,0,0,0,0,0,0,0,0,0,0,0
3445,Mường Tè,12,Lai Châu,NO,Mường Tè,Lai Châu,Mường Tè,Lai Châu,22.5034,102.643435,6268,21.46575342,292,0,78,0,0,0,0,0,0,0,0,0,0,0,0
3618,Mường Than,12,Lai Châu,NO,Mường Than,Lai Châu,Mường Than,Lai Châu,22.023526,103.862241,13715,89.01220145,154.08,0,171,0,0,0,0,0,0,0,0,0,0,0,0
3544,Nậm Cuổi,12,Lai Châu,NO,Nậm Cuổi,Lai Châu,Nậm Cuổi,Lai Châu,22.075351,103.478009,10636,60.03612554,177.16,0,132,0,0,0,0,0,0,0,0,0,0,0,0
3434,Nậm Hàng,12,Lai Châu,NO,Nậm Hàng,Lai Châu,Nậm Hàng,Lai Châu,22.154724,103.022224,11049,32.89175994,335.92,0,138,0,0,0,0,0,0,0,0,0,0,0,0
3538,Nậm Mạ,12,Lai Châu,NO,Nậm Mạ,Lai Châu,Nậm Mạ,Lai Châu,22.151663,103.438501,6406,56.82604453,112.73,0,80,0,0,0,0,0,0,0,0,0,0,0,0
3613,Nậm Sỏ,12,Lai Châu,NO,Nậm Sỏ,Lai Châu,Nậm Sỏ,Lai Châu,22.055604,103.599333,10438,39.63546611,263.35,0,130,0,0,0,0,0,0,0,0,0,0,0,0
3517,Nậm Tăm,12,Lai Châu,NO,Nậm Tăm,Lai Châu,Nậm Tăm,Lai Châu,22.287413,103.392739,12560,51.8408453,242.28,0,157,0,0,0,0,0,0,0,0,0,0,0,0
3503,Pa Tần,12,Lai Châu,NO,Pa Tần,Lai Châu,Pa Tần,Lai Châu,22.40651,103.10916,8902,28.12371655,316.53,0,111,0,0,0,0,0,0,0,0,0,0,0,0
3442,Pa Ủ,12,Lai Châu,NO,Pa Ủ,Lai Châu,Pa Ủ,Lai Châu,22.618104,102.688085,5992,13.47788924,444.58,0,74,0,0,0,0,0,0,0,0,0,0,0,0
3616,Pắc Ta,12,Lai Châu,NO,Pắc Ta,Lai Châu,Pắc Ta,Lai Châu,22.107933,103.857104,10542,62.53410844,168.58,0,131,0,0,0,0,0,0,0,0,0,0,0,0
3549,Phong Thổ,12,Lai Châu,NO,Phong Thổ,Lai Châu,Phong Thổ,Lai Châu,22.565862,103.221544,22943,86.02227138,266.71,0,286,0,0,0,0,0,0,0,0,0,0,0,0
3532,Pu Sam Cáp,12,Lai Châu,NO,Pu Sam Cáp,Lai Châu,Pu Sam Cáp,Lai Châu,22.230713,103.48485,11436,75.12316889,152.23,0,142,0,0,0,0,0,0,0,0,0,0,0,0
3562,Sì Lở Lầu,12,Lai Châu,NO,Sì Lở Lầu,Lai Châu,Sì Lở Lầu,Lai Châu,22.743813,103.366495,15951,107.9228687,147.8,0,199,0,0,0,0,0,0,0,0,0,0,0,0
3478,Sìn Hồ,12,Lai Châu,NO,Sìn Hồ,Lai Châu,Sìn Hồ,Lai Châu,22.319975,103.224187,13800,86.42284569,159.68,0,172,0,0,0,0,0,0,0,0,0,0,0,0
3394,Sin Suối Hồ,12,Lai Châu,NO,Sin Suối Hồ,Lai Châu,Sin Suối Hồ,Lai Châu,22.520673,103.49494,16091,62.87757415,255.91,0,201,0,0,0,0,0,0,0,0,0,0,0,0
3405,Tả Lèng,12,Lai Châu,NO,Tả Lèng,Lai Châu,Tả Lèng,Lai Châu,22.401976,103.561676,12437,96.891555,128.36,0,155,0,0,0,0,0,0,0,0,0,0,0,0
3463,Tà Tổng,12,Lai Châu,NO,Tà Tổng,Lai Châu,Tà Tổng,Lai Châu,22.301663,102.612394,7847,15.32587254,512.01,0,98,0,0,0,0,0,0,0,0,0,0,0,0
3408,Tân Phong,12,Lai Châu,NO,Tân Phong_03408,Lai Châu,Tân Phong_03408,Lai Châu,22.355673,103.474845,35905,336.2836003,106.77,0,448,0,0,0,0,0,0,0,0,0,0,0,0
3598,Tân Uyên,12,Lai Châu,NO,Tân Uyên_03598,Lai Châu,Tân Uyên_03598,Lai Châu,22.139651,103.736537,29956,101.1172996,296.25,0,374,0,0,0,0,0,0,0,0,0,0,0,0
3595,Than Uyên,12,Lai Châu,NO,Than Uyên,Lai Châu,Than Uyên,Lai Châu,21.957116,103.880116,26871,203.4294799,132.09,0,335,0,0,0,0,0,0,0,0,0,0,0,0
3439,Thu Lũm,12,Lai Châu,NO,Thu Lũm,Lai Châu,Thu Lũm,Lai Châu,22.668139,102.433978,5176,20.57642616,251.55,0,64,0,0,0,0,0,0,0,0,0,0,0,0
3529,Tủa Sín Chải,12,Lai Châu,NO,Tủa Sín Chải,Lai Châu,Tủa Sín Chải,Lai Châu,22.190827,103.274674,15954,54.47282163,292.88,0,199,0,0,0,0,0,0,0,0,0,0,0,0
3856,Bắc Yên,14,Sơn La,NO,Bắc Yên,Sơn La,Bắc Yên,Sơn La,21.188126,104.452502,21495,110.1009066,195.23,0,268,0,0,0,0,0,0,0,0,0,0,0,0
3724,Bình Thuận,14,Sơn La,NO,Bình Thuận_03724,Sơn La,Bình Thuận_03724,Sơn La,21.554352,103.594713,16869,138.5202825,121.78,0,210,0,0,0,0,0,0,0,0,0,0,0,0
4171,Bó Sinh,14,Sơn La,NO,Bó Sinh,Sơn La,Bó Sinh,Sơn La,21.258671,103.468829,16212,105.3890659,153.83,0,202,0,0,0,0,0,0,0,0,0,0,0,0
3664,Chiềng An,14,Sơn La,NO,Chiềng An,Sơn La,Chiềng An,Sơn La,21.38453,103.894797,20015,134.2567749,149.08,0,250,0,0,0,0,0,0,0,0,0,0,0,0
3670,Chiềng Cơi,14,Sơn La,NO,Chiềng Cơi,Sơn La,Chiềng Cơi,Sơn La,21.298123,103.871724,22351,238.8948268,93.56,0,279,0,0,0,0,0,0,0,0,0,0,0,0
4078,Chiềng Hặc,14,Sơn La,NO,Chiềng Hặc,Sơn La,Chiềng Hặc,Sơn La,20.978931,104.424738,18438,76.85382018,239.91,0,230,0,0,0,0,0,0,0,0,0,0,0,0
3850,Chiềng Hoa,14,Sơn La,NO,Chiềng Hoa,Sơn La,Chiềng Hoa,Sơn La,21.464737,104.20313,17377,58.61103616,296.48,0,217,0,0,0,0,0,0,0,0,0,0,0,0
4204,Chiềng Khoong,14,Sơn La,NO,Chiềng Khoong,Sơn La,Chiềng Khoong,Sơn La,20.964488,103.754213,22871,90.08941584,253.87,0,285,0,0,0,0,0,0,0,0,0,0,0,0
4222,Chiềng Khương,14,Sơn La,NO,Chiềng Khương,Sơn La,Chiềng Khương,Sơn La,20.961426,104.003563,18429,123.0076091,149.82,0,230,0,0,0,0,0,0,0,0,0,0,0,0
3754,Chiềng La,14,Sơn La,NO,Chiềng La,Sơn La,Chiềng La,Sơn La,21.466709,103.764919,20065,159.0818996,126.13,0,250,0,0,0,0,0,0,0,0,0,0,0,0
3814,Chiềng Lao,14,Sơn La,NO,Chiềng Lao,Sơn La,Chiềng Lao,Sơn La,21.642346,103.945186,2069,5.77046437,358.55,0,25,0,0,0,0,0,0,0,0,0,0,0,0
4132,Chiềng Mai,14,Sơn La,NO,Chiềng Mai,Sơn La,Chiềng Mai,Sơn La,21.190007,103.980394,23427,154.2772473,151.85,0,292,0,0,0,0,0,0,0,0,0,0,0,0
4123,Chiềng Mung,14,Sơn La,NO,Chiềng Mung,Sơn La,Chiềng Mung,Sơn La,21.27765,104.046657,27377,192.6058815,142.14,0,342,0,0,0,0,0,0,0,0,0,0,0,0
3892,Chiềng Sại,14,Sơn La,NO,Chiềng Sại,Sơn La,Chiềng Sại,Sơn La,21.071321,104.458192,662,5.315134484,124.55,0,8,0,0,0,0,0,0,0,0,0,0,0,0
3679,Chiềng Sinh,14,Sơn La,NO,Chiềng Sinh_03679,Sơn La,Chiềng Sinh_03679,Sơn La,21.308287,103.968947,26690,390.2046784,68.4,0,333,0,0,0,0,0,0,0,0,0,0,0,0
4195,Chiềng Sơ,14,Sơn La,NO,Chiềng Sơ,Sơn La,Chiềng Sơ,Sơn La,21.131891,103.602772,16886,120.3478013,140.31,0,211,0,0,0,0,0,0,0,0,0,0,0,0
3985,Chiềng Sơn,14,Sơn La,NO,Chiềng Sơn,Sơn La,Chiềng Sơn,Sơn La,20.740539,104.663739,13941,68.03806735,204.9,0,174,0,0,0,0,0,0,0,0,0,0,0,0
4108,Chiềng Sung,14,Sơn La,NO,Chiềng Sung,Sơn La,Chiềng Sung,Sơn La,21.308739,104.131073,13957,127.7177892,109.28,0,174,0,0,0,0,0,0,0,0,0,0,0,0
3781,Co Mạ,14,Sơn La,NO,Co Mạ,Sơn La,Co Mạ,Sơn La,21.305038,103.529083,1434,6.692178458,214.28,0,17,0,0,0,0,0,0,0,0,0,0,0,0
4000,Đoàn Kết,14,Sơn La,NO,Đoàn Kết_04000,Sơn La,Đoàn Kết_04000,Sơn La,20.966123,104.723701,17667,73.41062079,240.66,0,220,0,0,0,0,0,0,0,0,0,0,0,0
3922,Gia Phù,14,Sơn La,NO,Gia Phù,Sơn La,Gia Phù,Sơn La,21.179275,104.556465,21598,194.0172476,111.32,0,269,0,0,0,0,0,0,0,0,0,0,0,0
4210,Huổi Một,14,Sơn La,NO,Huổi Một,Sơn La,Huổi Một,Sơn La,21.033002,103.646433,12162,50.53602593,240.66,0,152,0,0,0,0,0,0,0,0,0,0,0,0
3961,Kim Bon,14,Sơn La,NO,Kim Bon,Sơn La,Kim Bon,Sơn La,21.109126,104.584145,9724,93.04372787,104.51,0,121,0,0,0,0,0,0,0,0,0,0,0,0
3763,Long Hẹ,14,Sơn La,NO,Long Hẹ,Sơn La,Long Hẹ,Sơn La,21.446983,103.505309,8345,52.68308081,158.4,0,104,0,0,0,0,0,0,0,0,0,0,0,0
4096,Lóng Phiêng,14,Sơn La,NO,Lóng Phiêng,Sơn La,Lóng Phiêng,Sơn La,20.884389,104.385778,10984,74.31161626,147.81,0,137,0,0,0,0,0,0,0,0,0,0,0,0
4045,Lóng Sập,14,Sơn La,NO,Lóng Sập,Sơn La,Lóng Sập,Sơn La,20.793191,104.50721,9484,44.88405111,211.3,0,118,0,0,0,0,0,0,0,0,0,0,0,0
4105,Mai Sơn,14,Sơn La,NO,Mai Sơn,Sơn La,Mai Sơn,Sơn La,21.146182,104.157729,51570,313.6861314,164.4,0,644,0,0,0,0,0,0,0,0,0,0,0,0
3980,Mộc Châu,14,Sơn La,NO,Mộc Châu,Sơn La,Mộc Châu,Sơn La,20.865858,104.581256,20768,123.899296,167.62,0,259,0,0,0,0,0,0,0,0,0,0,0,0
3979,Mộc Sơn,14,Sơn La,NO,Mộc Sơn,Sơn La,Mộc Sơn,Sơn La,20.807748,104.645117,14798,390.654699,37.88,0,184,0,0,0,0,0,0,0,0,0,0,0,0
3799,Muổi Nọi,14,Sơn La,NO,Muổi Nọi,Sơn La,Muổi Nọi,Sơn La,21.300321,103.79562,15397,119.6348096,128.7,0,192,0,0,0,0,0,0,0,0,0,0,0,0
3760,Mường Bám,14,Sơn La,NO,Mường Bám,Sơn La,Mường Bám,Sơn La,21.381917,103.389789,10569,138.7736345,76.16,0,132,0,0,0,0,0,0,0,0,0,0,0,0
3943,Mường Bang,14,Sơn La,NO,Mường Bang,Sơn La,Mường Bang,Sơn La,21.16672,104.792396,12637,46.77771608,270.15,0,157,0,0,0,0,0,0,0,0,0,0,0,0
3847,Mường Bú,14,Sơn La,NO,Mường Bú,Sơn La,Mường Bú,Sơn La,21.402295,104.036931,24902,116.5551135,213.65,0,311,0,0,0,0,0,0,0,0,0,0,0,0
4117,Mường Chanh,14,Sơn La,NO,Mường Chanh_04117,Sơn La,Mường Chanh_04117,Sơn La,21.219677,103.8751,3835,58.56750153,65.48,0,47,0,0,0,0,0,0,0,0,0,0,0,0
3688,Mường Chiên,14,Sơn La,NO,Mường Chiên,Sơn La,Mường Chiên,Sơn La,21.919383,103.602901,13816,36.14861329,382.2,0,172,0,0,0,0,0,0,0,0,0,0,0,0
3907,Mường Cơi,14,Sơn La,NO,Mường Cơi,Sơn La,Mường Cơi,Sơn La,21.306308,104.763798,19262,98.78961945,194.98,0,240,0,0,0,0,0,0,0,0,0,0,0,0
3727,Mường É,14,Sơn La,NO,Mường É,Sơn La,Mường É,Sơn La,21.498905,103.557521,14634,104.5958116,139.91,0,182,0,0,0,0,0,0,0,0,0,0,0,0
3694,Mường Giôn,14,Sơn La,NO,Mường Giôn,Sơn La,Mường Giôn,Sơn La,21.74909,103.681247,15901,54.72912508,290.54,0,198,0,0,0,0,0,0,0,0,0,0,0,0
4219,Mường Hung,14,Sơn La,NO,Mường Hung,Sơn La,Mường Hung,Sơn La,20.961426,103.876311,24241,107.2183644,226.09,0,303,0,0,0,0,0,0,0,0,0,0,0,0
3757,Mường Khiêng,14,Sơn La,NO,Mường Khiêng,Sơn La,Mường Khiêng,Sơn La,21.489857,103.889802,2420,11.85112635,204.2,0,30,0,0,0,0,0,0,0,0,0,0,0,0
3808,Mường La,14,Sơn La,NO,Mường La,Sơn La,Mường La,Sơn La,21.533799,104.050965,32218,94.24325747,341.86,0,402,0,0,0,0,0,0,0,0,0,0,0,0
4183,Mường Lầm,14,Sơn La,NO,Mường Lầm,Sơn La,Mường Lầm,Sơn La,21.14027,103.465229,15411,92.22621185,167.1,0,192,0,0,0,0,0,0,0,0,0,0,0,0
4246,Mường Lạn,14,Sơn La,NO,Mường Lạn_04246,Sơn La,Mường Lạn_04246,Sơn La,20.767337,103.707969,10736,40.53003133,264.89,0,134,0,0,0,0,0,0,0,0,0,0,0,0
4240,Mường Lèo,14,Sơn La,NO,Mường Lèo,Sơn La,Mường Lèo,Sơn La,20.898806,103.35839,4212,11.20928252,375.76,0,52,0,0,0,0,0,0,0,0,0,0,0,0
3712,Mường Sại,14,Sơn La,NO,Mường Sại,Sơn La,Mường Sại,Sơn La,21.59788,103.735291,9413,76.56580446,122.94,0,117,0,0,0,0,0,0,0,0,0,0,0,0
3784,Nậm Lầu,14,Sơn La,NO,Nậm Lầu,Sơn La,Nậm Lầu,Sơn La,21.369554,103.669883,17822,71.97027824,247.63,0,222,0,0,0,0,0,0,0,0,0,0,0,0
4186,Nậm Ty,14,Sơn La,NO,Nậm Ty,Sơn La,Nậm Ty,Sơn La,21.223396,103.66107,16427,81.36609045,201.89,0,205,0,0,0,0,0,0,0,0,0,0,0,0
3820,Ngọc Chiến,14,Sơn La,NO,Ngọc Chiến,Sơn La,Ngọc Chiến,Sơn La,21.611637,104.201298,11839,55.79433527,212.19,0,147,0,0,0,0,0,0,0,0,0,0,0,0
3871,Pắc Ngà,14,Sơn La,NO,Pắc Ngà,Sơn La,Pắc Ngà,Sơn La,21.299607,104.230471,13073,106.6400196,122.59,0,163,0,0,0,0,0,0,0,0,0,0,0,0
4144,Phiêng Cằm,14,Sơn La,NO,Phiêng Cằm,Sơn La,Phiêng Cằm,Sơn La,21.15218,103.835254,14241,50.80084186,280.33,0,178,0,0,0,0,0,0,0,0,0,0,0,0
4099,Phiêng Khoài,14,Sơn La,NO,Phiêng Khoài,Sơn La,Phiêng Khoài,Sơn La,20.956532,104.293381,12236,117.9146189,103.77,0,152,0,0,0,0,0,0,0,0,0,0,0,0
4159,Phiêng Pằn,14,Sơn La,NO,Phiêng Pằn,Sơn La,Phiêng Pằn,Sơn La,21.055459,104.04301,24312,75.82098862,320.65,0,303,0,0,0,0,0,0,0,0,0,0,0,0
3910,Phù Yên,14,Sơn La,NO,Phù Yên,Sơn La,Phù Yên,Sơn La,21.267548,104.6613,46585,394.8550602,117.98,0,582,0,0,0,0,0,0,0,0,0,0,0,0
4228,Púng Bánh,14,Sơn La,NO,Púng Bánh,Sơn La,Púng Bánh,Sơn La,21.005841,103.469379,17003,46.62955244,364.64,0,212,0,0,0,0,0,0,0,0,0,0,0,0
3703,Quỳnh Nhai,14,Sơn La,NO,Quỳnh Nhai,Sơn La,Quỳnh Nhai,Sơn La,21.633859,103.617586,30092,985.0081833,30.55,0,376,0,0,0,0,0,0,0,0,0,0,0,0
4006,Song Khủa,14,Sơn La,NO,Song Khủa,Sơn La,Song Khủa,Sơn La,20.920036,104.899921,15606,81.09119252,192.45,0,195,0,0,0,0,0,0,0,0,0,0,0,0
4168,Sông Mã,14,Sơn La,NO,Sông Mã,Sơn La,Sông Mã,Sơn La,21.090727,103.736314,25784,243.2682329,105.99,0,322,0,0,0,0,0,0,0,0,0,0,0,0
4231,Sốp Cộp,14,Sơn La,NO,Sốp Cộp,Sơn La,Sốp Cộp,Sơn La,20.869979,103.572005,23722,50.80201306,466.95,0,296,0,0,0,0,0,0,0,0,0,0,0,0
3901,Suối Tọ,14,Sơn La,NO,Suối Tọ,Sơn La,Suối Tọ,Sơn La,21.322197,104.599475,6247,35.19634909,177.49,0,78,0,0,0,0,0,0,0,0,0,0,0,0
4136,Tà Hộc,14,Sơn La,NO,Tà Hộc,Sơn La,Tà Hộc,Sơn La,21.244811,104.217624,13485,90.16448248,149.56,0,168,0,0,0,0,0,0,0,0,0,0,0,0
3880,Tạ Khoa,14,Sơn La,NO,Tạ Khoa,Sơn La,Tạ Khoa,Sơn La,21.16482,104.330316,15288,79.67479675,191.88,0,191,0,0,0,0,0,0,0,0,0,0,0,0
3868,Tà Xùa,14,Sơn La,NO,Tà Xùa,Sơn La,Tà Xùa,Sơn La,21.327023,104.493048,11030,47.20332092,233.67,0,137,0,0,0,0,0,0,0,0,0,0,0,0
3970,Tân Phong,14,Sơn La,NO,Tân Phong_03970,Sơn La,Tân Phong_03970,Sơn La,21.077061,104.740614,6684,49.34662237,135.45,0,83,0,0,0,0,0,0,0,0,0,0,0,0
3997,Tân Yên,14,Sơn La,NO,Tân Yên_03997,Sơn La,Tân Yên_03997,Sơn La,20.979421,104.588781,1810,9.388453758,192.79,0,22,0,0,0,0,0,0,0,0,0,0,0,0
3982,Thảo Nguyên,14,Sơn La,NO,Thảo Nguyên,Sơn La,Thảo Nguyên,Sơn La,20.856169,104.68312,22139,417.0088529,53.09,0,276,0,0,0,0,0,0,0,0,0,0,0,0
3721,Thuận Châu,14,Sơn La,NO,Thuận Châu,Sơn La,Thuận Châu,Sơn La,21.436855,103.709524,46249,348.1818866,132.83,0,578,0,0,0,0,0,0,0,0,0,0,0,0
3646,Tô Hiệu,14,Sơn La,NO,Tô Hiệu,Sơn La,Tô Hiệu,Sơn La,21.326398,103.924536,50518,4238.087248,11.92,0,631,0,0,0,0,0,0,0,0,0,0,0,0
4018,Tô Múa,14,Sơn La,NO,Tô Múa,Sơn La,Tô Múa,Sơn La,20.924633,104.816442,14479,79.56368832,181.98,0,180,0,0,0,0,0,0,0,0,0,0,0,0
3958,Tường Hạ,14,Sơn La,NO,Tường Hạ,Sơn La,Tường Hạ,Sơn La,21.140942,104.672635,13863,114.7124535,120.85,0,173,0,0,0,0,0,0,0,0,0,0,0,0
4048,Vân Hồ,14,Sơn La,NO,Vân Hồ,Sơn La,Vân Hồ,Sơn La,20.793244,104.85368,24620,91.72876304,268.4,0,307,0,0,0,0,0,0,0,0,0,0,0,0
4033,Vân Sơn,14,Sơn La,NO,Vân Sơn_04033,Sơn La,Vân Sơn_04033,Sơn La,20.873953,104.717551,15677,395.783893,39.61,0,195,0,0,0,0,0,0,0,0,0,0,0,0
3862,Xím Vàng,14,Sơn La,NO,Xím Vàng,Sơn La,Xím Vàng,Sơn La,21.355532,104.326548,7481,32.19711642,232.35,0,93,0,0,0,0,0,0,0,0,0,0,0,0
4057,Xuân Nha,14,Sơn La,NO,Xuân Nha,Sơn La,Xuân Nha,Sơn La,20.667056,104.738199,9974,37.87067623,263.37,0,124,0,0,0,0,0,0,0,0,0,0,0,0
4075,Yên Châu,14,Sơn La,NO,Yên Châu,Sơn La,Yên Châu,Sơn La,21.080642,104.294362,32562,132.0705739,246.55,0,407,0,0,0,0,0,0,0,0,0,0,0,0
4087,Yên Sơn,14,Sơn La,NO,Yên Sơn_04087,Sơn La,Yên Sơn_04087,Sơn La,21.009044,104.185859,12423,106.5254673,116.62,0,155,0,0,0,0,0,0,0,0,0,0,0,0
2686,A Mú Sung,15,Lào Cai,NO,A Mú Sung,Lào Cai,A Mú Sung,Lào Cai,22.734052,103.661937,5865,56.17816092,104.4,0,73,0,0,0,0,0,0,0,0,0,0,0,0
4543,Âu Lâu,15,Lào Cai,NO,Âu Lâu,Lào Cai,Âu Lâu,Lào Cai,21.660307,104.902338,22894,345.9876077,66.17,0,286,0,0,0,0,0,0,0,0,0,0,0,0
2839,Bắc Hà,15,Lào Cai,NO,Bắc Hà,Lào Cai,Bắc Hà,Lào Cai,22.524458,104.310059,30060,167.278798,179.7,0,375,0,0,0,0,0,0,0,0,0,0,0,0
3046,Bản Hồ,15,Lào Cai,NO,Bản Hồ,Lào Cai,Bản Hồ,Lào Cai,22.240847,103.945087,9210,55.41516245,166.2,0,115,0,0,0,0,0,0,0,0,0,0,0,0
2788,Bản Lầu,15,Lào Cai,NO,Bản Lầu,Lào Cai,Bản Lầu,Lào Cai,22.596252,104.06222,18279,145.8818835,125.3,0,228,0,0,0,0,0,0,0,0,0,0,0,0
2869,Bản Liền,15,Lào Cai,NO,Bản Liền,Lào Cai,Bản Liền,Lào Cai,22.494725,104.383441,4157,54.19817471,76.7,0,51,0,0,0,0,0,0,0,0,0,0,0,0
2725,Bản Xèo,15,Lào Cai,NO,Bản Xèo,Lào Cai,Bản Xèo,Lào Cai,22.516891,103.766909,843,10.76628352,78.3,0,10,0,0,0,0,0,0,0,0,0,0,0,0
4750,Bảo Ái,15,Lào Cai,NO,Bảo Ái,Lào Cai,Bảo Ái,Lào Cai,21.898126,104.854017,23936,146.4781837,163.41,0,299,0,0,0,0,0,0,0,0,0,0,0,0
2989,Bảo Hà,15,Lào Cai,NO,Bảo Hà,Lào Cai,Bảo Hà,Lào Cai,22.192731,104.341062,33600,138.2716049,243,0,420,0,0,0,0,0,0,0,0,0,0,0,0
2890,Bảo Nhai,15,Lào Cai,NO,Bảo Nhai,Lào Cai,Bảo Nhai,Lào Cai,22.462729,104.217577,17087,109.5320513,156,0,213,0,0,0,0,0,0,0,0,0,0,0,0
2905,Bảo Thắng,15,Lào Cai,NO,Bảo Thắng,Lào Cai,Bảo Thắng,Lào Cai,22.366717,104.145228,323,2.013715711,160.4,0,4,0,0,0,0,0,0,0,0,0,0,0,0
2947,Bảo Yên,15,Lào Cai,NO,Bảo Yên,Lào Cai,Bảo Yên,Lào Cai,22.20936,104.465106,2123,17.82535684,119.1,0,26,0,0,0,0,0,0,0,0,0,0,0,0
2683,Bát Xát,15,Lào Cai,NO,Bát Xát,Lào Cai,Bát Xát,Lào Cai,22.52071,103.870758,26818,141.1473684,190,0,335,0,0,0,0,0,0,0,0,0,0,0,0
2671,Cam Đường,15,Lào Cai,NO,Cam Đường,Lào Cai,Cam Đường,Lào Cai,22.4277,104.009686,66852,1116.0601,59.9,0,835,0,0,0,0,0,0,0,0,0,0,0,0
4726,Cảm Nhân,15,Lào Cai,NO,Cảm Nhân,Lào Cai,Cảm Nhân,Lào Cai,22.004196,104.930265,1708,11.25387099,151.77,0,21,0,0,0,0,0,0,0,0,0,0,0,0
2782,Cao Sơn,15,Lào Cai,NO,Cao Sơn_02782,Lào Cai,Cao Sơn_02782,Lào Cai,22.623781,104.152559,8738,69.94316817,124.93,0,109,0,0,0,0,0,0,0,0,0,0,0,0
4693,Cát Thịnh,15,Lào Cai,NO,Cát Thịnh,Lào Cai,Cát Thịnh,Lào Cai,21.464046,104.699756,11197,66.21134173,169.11,0,139,0,0,0,0,0,0,0,0,0,0,0,0
4681,Cầu Thia,15,Lào Cai,NO,Cầu Thia,Lào Cai,Cầu Thia,Lào Cai,21.555082,104.498122,24853,780.5590452,31.84,0,310,0,0,0,0,0,0,0,0,0,0,0,0
4699,Chấn Thịnh,15,Lào Cai,NO,Chấn Thịnh,Lào Cai,Chấn Thịnh,Lào Cai,21.503859,104.814112,1851,15.35589846,120.54,0,23,0,0,0,0,0,0,0,0,0,0,0,0
4387,Châu Quế,15,Lào Cai,NO,Châu Quế,Lào Cai,Châu Quế,Lào Cai,22.034798,104.455006,13254,81.68875193,162.25,0,165,0,0,0,0,0,0,0,0,0,0,0,0
4489,Chế Tạo,15,Lào Cai,NO,Chế Tạo,Lào Cai,Chế Tạo,Lào Cai,21.707097,104.031397,261,1.113291247,234.44,0,3,0,0,0,0,0,0,0,0,0,0,0,0
3091,Chiềng Ken,15,Lào Cai,NO,Chiềng Ken,Lào Cai,Chiềng Ken,Lào Cai,22.00207,104.383779,9165,47.90904339,191.3,0,114,0,0,0,0,0,0,0,0,0,0,0,0
2896,Cốc Lầu,15,Lào Cai,NO,Cốc Lầu,Lào Cai,Cốc Lầu,Lào Cai,22.395208,104.353192,87,0.640648012,135.8,0,1,0,0,0,0,0,0,0,0,0,0,0,0
2746,Cốc San,15,Lào Cai,NO,Cốc San,Lào Cai,Cốc San,Lào Cai,22.466405,103.925421,10918,190.8741259,57.2,0,136,0,0,0,0,0,0,0,0,0,0,0,0
2707,Dền Sáng,15,Lào Cai,NO,Dền Sáng,Lào Cai,Dền Sáng,Lào Cai,22.571836,103.655411,1198,8.083670715,148.2,0,14,0,0,0,0,0,0,0,0,0,0,0,0
4399,Đông Cuông,15,Lào Cai,NO,Đông Cuông,Lào Cai,Đông Cuông,Lào Cai,21.982987,104.602411,21607,147.6896787,146.3,0,270,0,0,0,0,0,0,0,0,0,0,0,0
3106,Dương Quỳ,15,Lào Cai,NO,Dương Quỳ,Lào Cai,Dương Quỳ,Lào Cai,22.0238,104.167423,8790,55.95162317,157.1,0,109,0,0,0,0,0,0,0,0,0,0,0,0
4636,Gia Hội,15,Lào Cai,NO,Gia Hội,Lào Cai,Gia Hội,Lào Cai,21.700155,104.38018,14683,68.85345838,213.25,0,183,0,0,0,0,0,0,0,0,0,0,0,0
2923,Gia Phú,15,Lào Cai,NO,Gia Phú,Lào Cai,Gia Phú,Lào Cai,22.342183,104.085463,28028,273.7109375,102.4,0,350,0,0,0,0,0,0,0,0,0,0,0,0
4585,Hạnh Phúc,15,Lào Cai,NO,Hạnh Phúc_04585,Lào Cai,Hạnh Phúc_04585,Lào Cai,21.481131,104.350463,13555,69.9251999,193.85,0,169,0,0,0,0,0,0,0,0,0,0,0,0
2680,Hợp Thành,15,Lào Cai,NO,Hợp Thành_02680,Lào Cai,Hợp Thành_02680,Lào Cai,22.37508,103.974271,10664,258.8349515,41.2,0,133,0,0,0,0,0,0,0,0,0,0,0,0
4576,Hưng Khánh,15,Lào Cai,NO,Hưng Khánh,Lào Cai,Hưng Khánh,Lào Cai,21.598251,104.713778,13842,113.2918645,122.18,0,173,0,0,0,0,0,0,0,0,0,0,0,0
4342,Khánh Hòa,15,Lào Cai,NO,Khánh Hòa_04342,Lào Cai,Khánh Hòa_04342,Lào Cai,22.111332,104.638353,17323,115.6640182,149.77,0,216,0,0,0,0,0,0,0,0,0,0,0,0
3103,Khánh Yên,15,Lào Cai,NO,Khánh Yên,Lào Cai,Khánh Yên,Lào Cai,22.012466,104.29512,14056,80.96774194,173.6,0,175,0,0,0,0,0,0,0,0,0,0,0,0
4465,Khao Mang,15,Lào Cai,NO,Khao Mang,Lào Cai,Khao Mang,Lào Cai,21.908346,103.974708,9202,76.64501083,120.06,0,115,0,0,0,0,0,0,0,0,0,0,0,0
4381,Lâm Giang,15,Lào Cai,NO,Lâm Giang,Lào Cai,Lâm Giang,Lào Cai,22.106524,104.48208,16203,90.27746824,179.48,0,202,0,0,0,0,0,0,0,0,0,0,0,0
4309,Lâm Thượng,15,Lào Cai,NO,Lâm Thượng,Lào Cai,Lâm Thượng,Lào Cai,22.22054,104.683444,19280,150.625,128,0,241,0,0,0,0,0,0,0,0,0,0,0,0
2647,Lào Cai,15,Lào Cai,NO,Lào Cai,Lào Cai,Lào Cai,Lào Cai,22.506434,104.005002,75818,1048.368363,72.32,0,947,0,0,0,0,0,0,0,0,0,0,0,0
4474,Lao Chải,15,Lào Cai,NO,Lao Chải_04474,Lào Cai,Lao Chải_04474,Lào Cai,21.816338,104.005805,9982,63.181214,157.99,0,124,0,0,0,0,0,0,0,0,0,0,0,0
4660,Liên Sơn,15,Lào Cai,NO,Liên Sơn_04660,Lào Cai,Liên Sơn_04660,Lào Cai,21.643395,104.497682,31353,260.8185675,120.21,0,391,0,0,0,0,0,0,0,0,0,0,0,0
4303,Lục Yên,15,Lào Cai,NO,Lục Yên,Lào Cai,Lục Yên,Lào Cai,22.117904,104.776047,29703,371.5661746,79.94,0,371,0,0,0,0,0,0,0,0,0,0,0,0
2848,Lùng Phình,15,Lào Cai,NO,Lùng Phình,Lào Cai,Lùng Phình,Lào Cai,22.620502,104.338427,11948,118.2970297,101,0,149,0,0,0,0,0,0,0,0,0,0,0,0
4537,Lương Thịnh,15,Lào Cai,NO,Lương Thịnh,Lào Cai,Lương Thịnh,Lào Cai,21.642768,104.772408,12500,132.6823055,94.21,0,156,0,0,0,0,0,0,0,0,0,0,0,0
4375,Mậu A,15,Lào Cai,NO,Mậu A,Lào Cai,Mậu A,Lào Cai,21.901564,104.712651,40038,277.04124,144.52,0,500,0,0,0,0,0,0,0,0,0,0,0,0
3121,Minh Lương,15,Lào Cai,NO,Minh Lương,Lào Cai,Minh Lương,Lào Cai,21.977667,104.093989,9017,43.6447241,206.6,0,112,0,0,0,0,0,0,0,0,0,0,0,0
4450,Mỏ Vàng,15,Lào Cai,NO,Mỏ Vàng,Lào Cai,Mỏ Vàng,Lào Cai,21.710939,104.624935,9891,59.00847154,167.62,0,123,0,0,0,0,0,0,0,0,0,0,0,0
4456,Mù Cang Chải,15,Lào Cai,NO,Mù Cang Chải,Lào Cai,Mù Cang Chải,Lào Cai,21.851854,104.118076,14550,99.01326982,146.95,0,181,0,0,0,0,0,0,0,0,0,0,0,0
3043,Mường Bo,15,Lào Cai,NO,Mường Bo,Lào Cai,Mường Bo,Lào Cai,22.223767,104.024827,7116,47.98381659,148.3,0,88,0,0,0,0,0,0,0,0,0,0,0,0
2728,Mường Hum,15,Lào Cai,NO,Mường Hum,Lào Cai,Mường Hum,Lào Cai,22.470264,103.651155,6711,31.53665414,212.8,0,83,0,0,0,0,0,0,0,0,0,0,0,0
2761,Mường Khương,15,Lào Cai,NO,Mường Khương,Lào Cai,Mường Khương,Lào Cai,22.730362,104.09814,24064,142.2222222,169.2,0,300,0,0,0,0,0,0,0,0,0,0,0,0
4345,Mường Lai,15,Lào Cai,NO,Mường Lai,Lào Cai,Mường Lai,Lào Cai,22.059306,104.844048,25188,175.1112347,143.84,0,314,0,0,0,0,0,0,0,0,0,0,0,0
3076,Nậm Chày,15,Lào Cai,NO,Nậm Chày,Lào Cai,Nậm Chày,Lào Cai,22.116483,104.095955,5520,38.84588318,142.1,0,69,0,0,0,0,0,0,0,0,0,0,0,0
4462,Nậm Có,15,Lào Cai,NO,Nậm Có,Lào Cai,Nậm Có,Lào Cai,21.859252,104.276304,9868,48.9484127,201.6,0,123,0,0,0,0,0,0,0,0,0,0,0,0
4273,Nam Cường,15,Lào Cai,NO,Nam Cường_04273,Lào Cai,Nam Cường_04273,Lào Cai,21.752569,104.886706,17486,379.3881536,46.09,0,218,0,0,0,0,0,0,0,0,0,0,0,0
3085,Nậm Xé,15,Lào Cai,NO,Nậm Xé,Lào Cai,Nậm Xé,Lào Cai,22.042617,104.002384,1456,8.516612073,170.96,0,18,0,0,0,0,0,0,0,0,0,0,0,0
2953,Nghĩa Đô,15,Lào Cai,NO,Nghĩa Đô_02953,Lào Cai,Nghĩa Đô_02953,Lào Cai,22.417729,104.441675,13696,85.92220828,159.4,0,171,0,0,0,0,0,0,0,0,0,0,0,0
4288,Nghĩa Lộ,15,Lào Cai,NO,Nghĩa Lộ_04288,Lào Cai,Nghĩa Lộ_04288,Lào Cai,21.592881,104.487604,72445,4243.995313,17.07,0,905,0,0,0,0,0,0,0,0,0,0,0,0
4711,Nghĩa Tâm,15,Lào Cai,NO,Nghĩa Tâm,Lào Cai,Nghĩa Tâm,Lào Cai,21.410707,104.851502,18692,140.4357626,133.1,0,233,0,0,0,0,0,0,0,0,0,0,0,0
3004,Ngũ Chỉ Sơn,15,Lào Cai,NO,Ngũ Chỉ Sơn,Lào Cai,Ngũ Chỉ Sơn,Lào Cai,22.433143,103.787442,7390,89.60834243,82.47,0,92,0,0,0,0,0,0,0,0,0,0,0,0
2752,Pha Long,15,Lào Cai,NO,Pha Long,Lào Cai,Pha Long,Lào Cai,22.775044,104.215756,14231,134.7632576,105.6,0,177,0,0,0,0,0,0,0,0,0,0,0,0
4609,Phình Hồ,15,Lào Cai,NO,Phình Hồ,Lào Cai,Phình Hồ,Lào Cai,21.452677,104.508888,10791,47.74356252,226.02,0,134,0,0,0,0,0,0,0,0,0,0,0,0
4402,Phong Dụ Hạ,15,Lào Cai,NO,Phong Dụ Hạ,Lào Cai,Phong Dụ Hạ,Lào Cai,21.896016,104.509992,7904,57.11395332,138.39,0,98,0,0,0,0,0,0,0,0,0,0,0,0
4423,Phong Dụ Thượng,15,Lào Cai,NO,Phong Dụ Thượng,Lào Cai,Phong Dụ Thượng,Lào Cai,21.824205,104.431272,6590,33.75851647,195.21,0,82,0,0,0,0,0,0,0,0,0,0,0,0
2902,Phong Hải,15,Lào Cai,NO,Phong Hải,Lào Cai,Phong Hải,Lào Cai,22.478723,104.122364,16686,138.0148883,120.9,0,208,0,0,0,0,0,0,0,0,0,0,0,0
2998,Phúc Khánh,15,Lào Cai,NO,Phúc Khánh,Lào Cai,Phúc Khánh,Lào Cai,22.169103,104.550804,8405,73.72807018,114,0,105,0,0,0,0,0,0,0,0,0,0,0,0
4363,Phúc Lợi,15,Lào Cai,NO,Phúc Lợi_04363,Lào Cai,Phúc Lợi_04363,Lào Cai,22.006091,104.70722,15137,94.18828947,160.71,0,189,0,0,0,0,0,0,0,0,0,0,0,0
4492,Púng Luông,15,Lào Cai,NO,Púng Luông,Lào Cai,Púng Luông,Lào Cai,21.735867,104.194941,19221,75.9003317,253.24,0,240,0,0,0,0,0,0,0,0,0,0,0,0
4531,Quy Mông,15,Lào Cai,NO,Quy Mông,Lào Cai,Quy Mông,Lào Cai,21.723808,104.766024,15925,106.7573909,149.17,0,199,0,0,0,0,0,0,0,0,0,0,0,0
3006,Sa Pa,15,Lào Cai,NO,Sa Pa,Lào Cai,Sa Pa,Lào Cai,22.343852,103.84728,22536,412.5205931,54.63,0,281,0,0,0,0,0,0,0,0,0,0,0,0
2809,Si Ma Cai,15,Lào Cai,NO,Si Ma Cai,Lào Cai,Si Ma Cai,Lào Cai,22.67839,104.284668,22526,206.6605505,109,0,281,0,0,0,0,0,0,0,0,0,0,0,0
2824,Sín Chéng,15,Lào Cai,NO,Sín Chéng,Lào Cai,Sín Chéng,Lào Cai,22.661464,104.209146,5617,63.82954545,88,0,70,0,0,0,0,0,0,0,0,0,0,0,0
4651,Sơn Lương,15,Lào Cai,NO,Sơn Lương_04651,Lào Cai,Sơn Lương_04651,Lào Cai,21.703958,104.509317,23012,237.4329344,96.92,0,287,0,0,0,0,0,0,0,0,0,0,0,0
2842,Tả Củ Tỷ,15,Lào Cai,NO,Tả Củ Tỷ,Lào Cai,Tả Củ Tỷ,Lào Cai,22.626183,104.397439,6452,96.08339538,67.15,0,80,0,0,0,0,0,0,0,0,0,0,0,0
3013,Tả Phìn,15,Lào Cai,NO,Tả Phìn,Lào Cai,Tả Phìn,Lào Cai,22.391818,103.867976,9778,130.9319764,74.68,0,122,0,0,0,0,0,0,0,0,0,0,0,0
3037,Tả Van,15,Lào Cai,NO,Tả Van,Lào Cai,Tả Van,Lào Cai,22.26838,103.862802,18354,115.7981073,158.5,0,229,0,0,0,0,0,0,0,0,0,0,0,0
4603,Tà Xi Láng,15,Lào Cai,NO,Tà Xi Láng,Lào Cai,Tà Xi Láng,Lào Cai,21.470088,104.604984,2207,24.93785311,88.5,0,27,0,0,0,0,0,0,0,0,0,0,0,0
4429,Tân Hợp,15,Lào Cai,NO,Tân Hợp,Lào Cai,Tân Hợp,Lào Cai,21.824667,104.574485,11332,56.5328012,200.45,0,141,0,0,0,0,0,0,0,0,0,0,0,0
4336,Tân Lĩnh,15,Lào Cai,NO,Tân Lĩnh,Lào Cai,Tân Lĩnh,Lào Cai,22.076853,104.751494,19851,134.3553299,147.75,0,248,0,0,0,0,0,0,0,0,0,0,0,0
2908,Tằng Loỏng,15,Lào Cai,NO,Tằng Loỏng,Lào Cai,Tằng Loỏng,Lào Cai,22.260052,104.137697,20223,160.857461,125.72,0,252,0,0,0,0,0,0,0,0,0,0,0,0
4717,Thác Bà,15,Lào Cai,NO,Thác Bà,Lào Cai,Thác Bà,Lào Cai,21.759469,105.033974,34591,242.6757401,142.54,0,432,0,0,0,0,0,0,0,0,0,0,0,0
4705,Thượng Bằng La,15,Lào Cai,NO,Thượng Bằng La,Lào Cai,Thượng Bằng La,Lào Cai,21.408351,104.766254,14475,129.6926799,111.61,0,180,0,0,0,0,0,0,0,0,0,0,0,0
2968,Thượng Hà,15,Lào Cai,NO,Thượng Hà,Lào Cai,Thượng Hà,Lào Cai,22.29066,104.376734,1395,9.700973574,143.8,0,17,0,0,0,0,0,0,0,0,0,0,0,0
4606,Trạm Tấu,15,Lào Cai,NO,Trạm Tấu,Lào Cai,Trạm Tấu,Lào Cai,21.555891,104.425928,11319,47.50094423,238.29,0,141,0,0,0,0,0,0,0,0,0,0,0,0
4498,Trấn Yên,15,Lào Cai,NO,Trấn Yên,Lào Cai,Trấn Yên,Lào Cai,21.811622,104.814711,28816,260.2601156,110.72,0,360,0,0,0,0,0,0,0,0,0,0,0,0
2695,Trịnh Tường,15,Lào Cai,NO,Trịnh Tường,Lào Cai,Trịnh Tường,Lào Cai,22.63757,103.744282,12189,83.14461119,146.6,0,152,0,0,0,0,0,0,0,0,0,0,0,0
4663,Trung Tâm,15,Lào Cai,NO,Trung Tâm,Lào Cai,Trung Tâm,Lào Cai,21.588115,104.546338,26482,613.7195829,43.15,0,331,0,0,0,0,0,0,0,0,0,0,0,0
4630,Tú Lệ,15,Lào Cai,NO,Tú Lệ,Lào Cai,Tú Lệ,Lào Cai,21.780726,104.276811,13100,113.5674036,115.35,0,163,0,0,0,0,0,0,0,0,0,0,0,0
3082,Văn Bàn,15,Lào Cai,NO,Văn Bàn,Lào Cai,Văn Bàn,Lào Cai,22.121942,104.254323,23581,150.4850032,156.7,0,294,0,0,0,0,0,0,0,0,0,0,0,0
4672,Văn Chấn,15,Lào Cai,NO,Văn Chấn,Lào Cai,Văn Chấn,Lào Cai,21.57334,104.610151,23413,166.9495151,140.24,0,292,0,0,0,0,0,0,0,0,0,0,0,0
4279,Văn Phú,15,Lào Cai,NO,Văn Phú_04279,Lào Cai,Văn Phú_04279,Lào Cai,21.69612,104.944889,26172,508.5891955,51.46,0,327,0,0,0,0,0,0,0,0,0,0,0,0
4564,Việt Hồng,15,Lào Cai,NO,Việt Hồng,Lào Cai,Việt Hồng,Lào Cai,21.602242,104.852768,10639,104.9521555,101.37,0,132,0,0,0,0,0,0,0,0,0,0,0,0
3061,Võ Lao,15,Lào Cai,NO,Võ Lao,Lào Cai,Võ Lao,Lào Cai,22.175931,104.160012,17641,115.4515707,152.8,0,220,0,0,0,0,0,0,0,0,0,0,0,0
4441,Xuân Ái,15,Lào Cai,NO,Xuân Ái,Lào Cai,Xuân Ái,Lào Cai,21.797868,104.709815,24373,196.6674736,123.93,0,304,0,0,0,0,0,0,0,0,0,0,0,0
2962,Xuân Hòa,15,Lào Cai,NO,Xuân Hòa_02962,Lào Cai,Xuân Hòa_02962,Lào Cai,22.291767,104.503141,77305,252.630719,306,0,966,0,0,0,0,0,0,0,0,0,0,0,0
2926,Xuân Quang,15,Lào Cai,NO,Xuân Quang,Lào Cai,Xuân Quang,Lào Cai,22.366162,104.232013,26807,194.6768337,137.7,0,335,0,0,0,0,0,0,0,0,0,0,0,0
2701,Y Tý,15,Lào Cai,NO,Y Tý,Lào Cai,Y Tý,Lào Cai,22.661809,103.618855,10148,79.52978056,127.6,0,126,0,0,0,0,0,0,0,0,0,0,0,0
4252,Yên Bái,15,Lào Cai,NO,Yên Bái,Lào Cai,Yên Bái,Lào Cai,21.714022,104.893111,69328,4097.399527,16.92,0,866,0,0,0,0,0,0,0,0,0,0,0,0
4714,Yên Bình,15,Lào Cai,NO,Yên Bình_04714,Lào Cai,Yên Bình_04714,Lào Cai,21.773729,104.95287,643551,71505.66667,9,0,8044,0,0,0,0,0,0,0,0,0,0,0,0
4744,Yên Thành,15,Lào Cai,NO,Yên Thành_04744,Lào Cai,Yên Thành_04744,Lào Cai,21.891892,104.9753,4706,123.4198794,38.13,0,58,0,0,0,0,0,0,0,0,0,0,0,0
5809,An Khánh,19,Thái Nguyên,NO,An Khánh_05809,Thái Nguyên,An Khánh_05809,Thái Nguyên,21.628995,105.714042,19800,439.1217565,45.09,0,247,0,0,0,0,0,0,0,0,0,0,0,0
1906,Ba Bể,19,Thái Nguyên,NO,Ba Bể,Thái Nguyên,Ba Bể,Thái Nguyên,22.439056,105.618838,11595,78.30226904,148.08,0,144,0,0,0,0,0,0,0,0,0,0,0,0
5533,Bá Xuyên,19,Thái Nguyên,NO,Bá Xuyên,Thái Nguyên,Bá Xuyên,Thái Nguyên,21.48719,105.828706,19762,935.2579271,21.13,0,247,0,0,0,0,0,0,0,0,0,0,0,0
1843,Bắc Kạn,19,Thái Nguyên,NO,Bắc Kạn,Thái Nguyên,Bắc Kạn,Thái Nguyên,22.109402,105.859724,25004,347.2777778,72,0,312,0,0,0,0,0,0,0,0,0,0,0,0
5528,Bách Quang,19,Thái Nguyên,NO,Bách Quang,Thái Nguyên,Bách Quang,Thái Nguyên,21.504987,105.865773,26265,750,35.02,0,328,0,0,0,0,0,0,0,0,0,0,0,0
2014,Bạch Thông,19,Thái Nguyên,NO,Bạch Thông,Thái Nguyên,Bạch Thông,Thái Nguyên,22.155062,105.67377,8126,63.56382979,127.84,0,101,0,0,0,0,0,0,0,0,0,0,0,0
1864,Bằng Thành,19,Thái Nguyên,NO,Bằng Thành,Thái Nguyên,Bằng Thành,Thái Nguyên,22.658725,105.665764,13773,66.14638363,208.22,0,172,0,0,0,0,0,0,0,0,0,0,0,0
1942,Bằng Vân,19,Thái Nguyên,NO,Bằng Vân,Thái Nguyên,Bằng Vân,Thái Nguyên,22.512095,106.056578,5558,41.78633185,133.01,0,69,0,0,0,0,0,0,0,0,0,0,0,0
5605,Bình Thành,19,Thái Nguyên,NO,Bình Thành_05605,Thái Nguyên,Bình Thành_05605,Thái Nguyên,21.794271,105.572605,31696,439.6116505,72.1,0,396,0,0,0,0,0,0,0,0,0,0,0,0
5587,Bình Yên,19,Thái Nguyên,NO,Bình Yên,Thái Nguyên,Bình Yên,Thái Nguyên,21.862594,105.556768,15863,328.019024,48.36,0,198,0,0,0,0,0,0,0,0,0,0,0,0
2008,Cẩm Giàng,19,Thái Nguyên,NO,Cẩm Giàng_02008,Thái Nguyên,Cẩm Giàng_02008,Thái Nguyên,22.184922,105.903872,11171,100.8303999,110.79,0,139,0,0,0,0,0,0,0,0,0,0,0,0
1879,Cao Minh,19,Thái Nguyên,NO,Cao Minh,Thái Nguyên,Cao Minh,Thái Nguyên,22.576839,105.608013,12614,93.513233,134.89,0,157,0,0,0,0,0,0,0,0,0,0,0,0
2020,Chợ Đồn,19,Thái Nguyên,NO,Chợ Đồn,Thái Nguyên,Chợ Đồn,Thái Nguyên,22.157363,105.588075,16006,112.6389866,142.1,0,200,0,0,0,0,0,0,0,0,0,0,0,0
2086,Chợ Mới,19,Thái Nguyên,NO,Chợ Mới_02086,Thái Nguyên,Chợ Mới_02086,Thái Nguyên,21.877913,105.83354,79611,1578.643664,50.43,0,995,0,0,0,0,0,0,0,0,0,0,0,0
1912,Chợ Rã,19,Thái Nguyên,NO,Chợ Rã,Thái Nguyên,Chợ Rã,Thái Nguyên,22.434146,105.730413,14288,153.9489279,92.81,0,178,0,0,0,0,0,0,0,0,0,0,0,0
2185,Côn Minh,19,Thái Nguyên,NO,Côn Minh,Thái Nguyên,Côn Minh,Thái Nguyên,22.109861,106.005888,6535,44.68070559,146.26,0,81,0,0,0,0,0,0,0,0,0,0,0,0
2152,Cường Lợi,19,Thái Nguyên,NO,Cường Lợi,Thái Nguyên,Cường Lợi,Thái Nguyên,22.317746,106.157202,5644,47.89138736,117.85,0,70,0,0,0,0,0,0,0,0,0,0,0,0
5488,Đại Phúc,19,Thái Nguyên,NO,Đại Phúc,Thái Nguyên,Đại Phúc,Thái Nguyên,21.577535,105.734622,3863,35.94491486,107.47,0,48,0,0,0,0,0,0,0,0,0,0,0,0
5830,Đại Từ,19,Thái Nguyên,NO,Đại Từ,Thái Nguyên,Đại Từ,Thái Nguyên,21.583645,105.596605,26613,383.3621435,69.42,0,332,0,0,0,0,0,0,0,0,0,0,0,0
5755,Dân Tiến,19,Thái Nguyên,NO,Dân Tiến,Thái Nguyên,Dân Tiến,Thái Nguyên,21.679801,106.163944,1910,13.23814805,144.28,0,23,0,0,0,0,0,0,0,0,0,0,0,0
5941,Điềm Thụy,19,Thái Nguyên,NO,Điềm Thụy,Thái Nguyên,Điềm Thụy,Thái Nguyên,21.459058,105.918306,4123,98.09659767,42.03,0,51,0,0,0,0,0,0,0,0,0,0,0,0
5569,Định Hóa,19,Thái Nguyên,NO,Định Hóa_05569,Thái Nguyên,Định Hóa_05569,Thái Nguyên,21.907143,105.603142,21996,326.8350669,67.3,0,274,0,0,0,0,0,0,0,0,0,0,0,0
5692,Đồng Hỷ,19,Thái Nguyên,NO,Đồng Hỷ,Thái Nguyên,Đồng Hỷ,Thái Nguyên,21.66581,105.828142,30544,568.5778109,53.72,0,381,0,0,0,0,0,0,0,0,0,0,0,0
1933,Đồng Phúc,19,Thái Nguyên,NO,Đồng Phúc,Thái Nguyên,Đồng Phúc,Thái Nguyên,22.309552,105.703413,11545,57.98302446,199.11,0,144,0,0,0,0,0,0,0,0,0,0,0,0
5776,Đức Lương,19,Thái Nguyên,NO,Đức Lương,Thái Nguyên,Đức Lương,Thái Nguyên,21.738887,105.580144,12982,213.1691297,60.9,0,162,0,0,0,0,0,0,0,0,0,0,0,0
1840,Đức Xuân,19,Thái Nguyên,NO,Đức Xuân,Thái Nguyên,Đức Xuân,Thái Nguyên,22.169683,105.84966,2232,64.77074869,34.46,0,27,0,0,0,0,0,0,0,0,0,0,0,0
5467,Gia Sàng,19,Thái Nguyên,NO,Gia Sàng,Thái Nguyên,Gia Sàng,Thái Nguyên,21.559605,105.883211,43428,1705.064782,25.47,0,542,0,0,0,0,0,0,0,0,0,0,0,0
1960,Hiệp Lực,19,Thái Nguyên,NO,Hiệp Lực,Thái Nguyên,Hiệp Lực,Thái Nguyên,22.325629,105.981651,7206,68.61550181,105.02,0,90,0,0,0,0,0,0,0,0,0,0,0,0
5632,Hợp Thành,19,Thái Nguyên,NO,Hợp Thành_05632,Thái Nguyên,Hợp Thành_05632,Thái Nguyên,21.764412,105.662184,10664,258.8349515,41.2,0,133,0,0,0,0,0,0,0,0,0,0,0,0
5953,Kha Sơn,19,Thái Nguyên,NO,Kha Sơn,Thái Nguyên,Kha Sơn,Thái Nguyên,21.432531,105.996194,4160,109.9075297,37.85,0,52,0,0,0,0,0,0,0,0,0,0,0,0
5551,Kim Phượng,19,Thái Nguyên,NO,Kim Phượng,Thái Nguyên,Kim Phượng,Thái Nguyên,21.965944,105.623894,10936,139.1171607,78.61,0,136,0,0,0,0,0,0,0,0,0,0,0,0
5818,La Bằng,19,Thái Nguyên,NO,La Bằng,Thái Nguyên,La Bằng,Thái Nguyên,21.621345,105.540909,17962,295.2333991,60.84,0,224,0,0,0,0,0,0,0,0,0,0,0,0
5740,La Hiên,19,Thái Nguyên,NO,La Hiên,Thái Nguyên,La Hiên,Thái Nguyên,21.74384,105.947981,12084,168.8888889,71.55,0,151,0,0,0,0,0,0,0,0,0,0,0,0
5542,Lam Vỹ,19,Thái Nguyên,NO,Lam Vỹ,Thái Nguyên,Lam Vỹ,Thái Nguyên,21.996494,105.696807,7951,111.3273593,71.42,0,99,0,0,0,0,0,0,0,0,0,0,0,0
5710,Linh Sơn,19,Thái Nguyên,NO,Linh Sơn_05710,Thái Nguyên,Linh Sơn_05710,Thái Nguyên,21.609575,105.866662,46027,1171.766802,39.28,0,575,0,0,0,0,0,0,0,0,0,0,0,0
1936,Nà Phặc,19,Thái Nguyên,NO,Nà Phặc,Thái Nguyên,Nà Phặc,Thái Nguyên,22.403746,105.904832,9092,89.85965606,101.18,0,113,0,0,0,0,0,0,0,0,0,0,0,0
2155,Na Rì,19,Thái Nguyên,NO,Na Rì,Thái Nguyên,Na Rì,Thái Nguyên,22.206294,106.176957,11320,100.4169254,112.73,0,141,0,0,0,0,0,0,0,0,0,0,0,0
2026,Nam Cường,19,Thái Nguyên,NO,Nam Cường_02026,Thái Nguyên,Nam Cường_02026,Thái Nguyên,22.343041,105.575382,10630,71.03240895,149.65,0,132,0,0,0,0,0,0,0,0,0,0,0,0
5707,Nam Hòa,19,Thái Nguyên,NO,Nam Hòa,Thái Nguyên,Nam Hòa,Thái Nguyên,21.629473,105.982559,15992,245.9550907,65.02,0,199,0,0,0,0,0,0,0,0,0,0,0,0
1954,Ngân Sơn,19,Thái Nguyên,NO,Ngân Sơn,Thái Nguyên,Ngân Sơn,Thái Nguyên,22.4713,105.939407,814,5.5918115,145.57,0,10,0,0,0,0,0,0,0,0,0,0,0,0
2071,Nghĩa Tá,19,Thái Nguyên,NO,Nghĩa Tá,Thái Nguyên,Nghĩa Tá,Thái Nguyên,22.053323,105.529496,7669,45.95242375,166.89,0,95,0,0,0,0,0,0,0,0,0,0,0,0
1882,Nghiên Loan,19,Thái Nguyên,NO,Nghiên Loan,Thái Nguyên,Nghiên Loan,Thái Nguyên,22.558089,105.724637,1087,8.340366761,130.33,0,13,0,0,0,0,0,0,0,0,0,0,0,0
5722,Nghinh Tường,19,Thái Nguyên,NO,Nghinh Tường,Thái Nguyên,Nghinh Tường,Thái Nguyên,21.851943,106.063081,6455,40.16051764,160.73,0,80,0,0,0,0,0,0,0,0,0,0,0,0
5443,Phan Đình Phùng,19,Thái Nguyên,NO,Phan Đình Phùng,Thái Nguyên,Phan Đình Phùng,Thái Nguyên,21.585942,105.836259,109798,7454.039375,14.73,0,1372,0,0,0,0,0,0,0,0,0,0,0,0
5860,Phổ Yên,19,Thái Nguyên,NO,Phổ Yên,Thái Nguyên,Phổ Yên,Thái Nguyên,21.443059,105.887431,48419,1189.65602,40.7,0,605,0,0,0,0,0,0,0,0,0,0,0,0
1849,Phong Quang,19,Thái Nguyên,NO,Phong Quang,Thái Nguyên,Phong Quang,Thái Nguyên,22.210008,105.754223,6051,39.43047048,153.46,0,75,0,0,0,0,0,0,0,0,0,0,0,0
5908,Phú Bình,19,Thái Nguyên,NO,Phú Bình,Thái Nguyên,Phú Bình,Thái Nguyên,21.47662,105.95634,44168,999.7283839,44.18,0,552,0,0,0,0,0,0,0,0,0,0,0,0
5602,Phú Đình,19,Thái Nguyên,NO,Phú Đình,Thái Nguyên,Phú Đình,Thái Nguyên,21.808467,105.522839,11569,241.5744414,47.89,0,144,0,0,0,0,0,0,0,0,0,0,0,0
5788,Phú Lạc,19,Thái Nguyên,NO,Phú Lạc,Thái Nguyên,Phú Lạc,Thái Nguyên,21.683294,105.644863,20786,357.947305,58.07,0,259,0,0,0,0,0,0,0,0,0,0,0,0
5611,Phú Lương,19,Thái Nguyên,NO,Phú Lương_05611,Thái Nguyên,Phú Lương_05611,Thái Nguyên,21.747671,105.725007,43251,384.8296112,112.39,0,540,0,0,0,0,0,0,0,0,0,0,0,0
5800,Phú Thịnh,19,Thái Nguyên,NO,Phú Thịnh,Thái Nguyên,Phú Thịnh,Thái Nguyên,21.686313,105.566265,21011,463.1033723,45.37,0,262,0,0,0,0,0,0,0,0,0,0,0,0
1969,Phủ Thông,19,Thái Nguyên,NO,Phủ Thông,Thái Nguyên,Phủ Thông,Thái Nguyên,22.267008,105.85371,1312,13.53414483,96.94,0,16,0,0,0,0,0,0,0,0,0,0,0,0
5773,Phú Xuyên,19,Thái Nguyên,NO,Phú Xuyên_05773,Thái Nguyên,Phú Xuyên_05773,Thái Nguyên,21.68245,105.515317,22705,351.5794364,64.58,0,283,0,0,0,0,0,0,0,0,0,0,0,0
1894,Phúc Lộc,19,Thái Nguyên,NO,Phúc Lộc_01894,Thái Nguyên,Phúc Lộc_01894,Thái Nguyên,22.470864,105.825805,27809,394.4539007,70.5,0,347,0,0,0,0,0,0,0,0,0,0,0,0
5857,Phúc Thuận,19,Thái Nguyên,NO,Phúc Thuận,Thái Nguyên,Phúc Thuận,Thái Nguyên,21.465239,105.755634,28612,385.8144552,74.16,0,357,0,0,0,0,0,0,0,0,0,0,0,0
5563,Phượng Tiến,19,Thái Nguyên,NO,Phượng Tiến,Thái Nguyên,Phượng Tiến,Thái Nguyên,21.928992,105.721135,13111,127.6630964,102.7,0,163,0,0,0,0,0,0,0,0,0,0,0,0
5851,Quân Chu,19,Thái Nguyên,NO,Quân Chu,Thái Nguyên,Quân Chu,Thái Nguyên,21.488809,105.685396,12898,162.484253,79.38,0,161,0,0,0,0,0,0,0,0,0,0,0,0
5482,Quan Triều,19,Thái Nguyên,NO,Quan Triều,Thái Nguyên,Quan Triều,Thái Nguyên,21.63209,105.788909,41653,1684.991909,24.72,0,520,0,0,0,0,0,0,0,0,0,0,0,0
2038,Quảng Bạch,19,Thái Nguyên,NO,Quảng Bạch,Thái Nguyên,Quảng Bạch,Thái Nguyên,22.273792,105.60838,3757,49.94682265,75.22,0,46,0,0,0,0,0,0,0,0,0,0,0,0
5674,Quang Sơn,19,Thái Nguyên,NO,Quang Sơn,Thái Nguyên,Quang Sơn,Thái Nguyên,21.734772,105.881105,10673,182.0399113,58.63,0,133,0,0,0,0,0,0,0,0,0,0,0,0
5455,Quyết Thắng,19,Thái Nguyên,NO,Quyết Thắng_05455,Thái Nguyên,Quyết Thắng_05455,Thái Nguyên,21.581251,105.787476,29481,1206.753991,24.43,0,368,0,0,0,0,0,0,0,0,0,0,0,0
5719,Sảng Mộc,19,Thái Nguyên,NO,Sảng Mộc,Thái Nguyên,Sảng Mộc,Thái Nguyên,21.905619,106.00221,3236,33.43320591,96.79,0,40,0,0,0,0,0,0,0,0,0,0,0,0
5518,Sông Công,19,Thái Nguyên,NO,Sông Công,Thái Nguyên,Sông Công,Thái Nguyên,21.457037,105.849764,20721,1482.188841,13.98,0,259,0,0,0,0,0,0,0,0,0,0,0,0
5503,Tân Cương,19,Thái Nguyên,NO,Tân Cương,Thái Nguyên,Tân Cương,Thái Nguyên,21.51818,105.782632,25139,434.0296961,57.92,0,314,0,0,0,0,0,0,0,0,0,0,0,0
5917,Tân Khánh,19,Thái Nguyên,NO,Tân Khánh_05917,Thái Nguyên,Tân Khánh_05917,Thái Nguyên,21.543291,105.941054,23366,483.6679776,48.31,0,292,0,0,0,0,0,0,0,0,0,0,0,0
2104,Tân Kỳ,19,Thái Nguyên,NO,Tân Kỳ_02104,Thái Nguyên,Tân Kỳ_02104,Thái Nguyên,22.056452,105.892665,32476,278.7639485,116.5,0,405,0,0,0,0,0,0,0,0,0,0,0,0
5923,Tân Thành,19,Thái Nguyên,NO,Tân Thành_05923,Thái Nguyên,Tân Thành_05923,Thái Nguyên,21.503075,106.006728,30149,465.2623457,64.8,0,376,0,0,0,0,0,0,0,0,0,0,0,0
5725,Thần Sa,19,Thái Nguyên,NO,Thần Sa,Thái Nguyên,Thần Sa,Thái Nguyên,21.836193,105.933602,592,4.052573932,146.08,0,7,0,0,0,0,0,0,0,0,0,0,0,0
5881,Thành Công,19,Thái Nguyên,NO,Thành Công_05881,Thái Nguyên,Thành Công_05881,Thái Nguyên,21.394608,105.808866,27854,641.0586881,43.45,0,348,0,0,0,0,0,0,0,0,0,0,0,0
2101,Thanh Mai,19,Thái Nguyên,NO,Thanh Mai,Thái Nguyên,Thanh Mai,Thái Nguyên,22.048959,105.755871,7294,65.66438603,111.08,0,91,0,0,0,0,0,0,0,0,0,0,0,0
2107,Thanh Thịnh,19,Thái Nguyên,NO,Thanh Thịnh,Thái Nguyên,Thanh Thịnh,Thái Nguyên,21.956563,105.829409,8669,77.18813997,112.31,0,108,0,0,0,0,0,0,0,0,0,0,0,0
1921,Thượng Minh,19,Thái Nguyên,NO,Thượng Minh,Thái Nguyên,Thượng Minh,Thái Nguyên,22.354055,105.810242,1086,8.249772106,131.64,0,13,0,0,0,0,0,0,0,0,0,0,0,0
1957,Thượng Quan,19,Thái Nguyên,NO,Thượng Quan,Thái Nguyên,Thượng Quan,Thái Nguyên,22.37477,106.057854,3696,23.86671833,154.86,0,46,0,0,0,0,0,0,0,0,0,0,0,0
5500,Tích Lương,19,Thái Nguyên,NO,Tích Lương,Thái Nguyên,Tích Lương,Thái Nguyên,21.545984,105.850286,54443,2310.82343,23.56,0,680,0,0,0,0,0,0,0,0,0,0,0,0
5662,Trại Cau,19,Thái Nguyên,NO,Trại Cau,Thái Nguyên,Trại Cau,Thái Nguyên,21.582557,105.992467,17065,205.974653,82.85,0,213,0,0,0,0,0,0,0,0,0,0,0,0
2176,Trần Phú,19,Thái Nguyên,NO,Trần Phú_02176,Thái Nguyên,Trần Phú_02176,Thái Nguyên,22.142849,106.121122,6943,47.78718425,145.29,0,86,0,0,0,0,0,0,0,0,0,0,0,0
5746,Tràng Xá,19,Thái Nguyên,NO,Tràng Xá,Thái Nguyên,Tràng Xá,Thái Nguyên,21.67867,106.054804,14388,120.7249539,119.18,0,179,0,0,0,0,0,0,0,0,0,0,0,0
5581,Trung Hội,19,Thái Nguyên,NO,Trung Hội,Thái Nguyên,Trung Hội,Thái Nguyên,21.82826,105.649641,13654,251.8723483,54.21,0,170,0,0,0,0,0,0,0,0,0,0,0,0
5899,Trung Thành,19,Thái Nguyên,NO,Trung Thành_05899,Thái Nguyên,Trung Thành_05899,Thái Nguyên,21.360962,105.878458,36515,1413.119195,25.84,0,456,0,0,0,0,0,0,0,0,0,0,0,0
5680,Văn Hán,19,Thái Nguyên,NO,Văn Hán,Thái Nguyên,Văn Hán,Thái Nguyên,21.664715,105.921282,19634,203.9684189,96.26,0,245,0,0,0,0,0,0,0,0,0,0,0,0
2143,Văn Lang,19,Thái Nguyên,NO,Văn Lang_02143,Thái Nguyên,Văn Lang_02143,Thái Nguyên,22.24484,106.056116,7558,44.04685588,171.59,0,94,0,0,0,0,0,0,0,0,0,0,0,0
5665,Văn Lăng,19,Thái Nguyên,NO,Văn Lăng,Thái Nguyên,Văn Lăng,Thái Nguyên,21.776285,105.833906,9503,126.2521589,75.27,0,118,0,0,0,0,0,0,0,0,0,0,0,0
5845,Vạn Phú,19,Thái Nguyên,NO,Vạn Phú,Thái Nguyên,Vạn Phú,Thái Nguyên,21.543187,105.631804,21729,424.3945313,51.2,0,271,0,0,0,0,0,0,0,0,0,0,0,0
5890,Vạn Xuân,19,Thái Nguyên,NO,Vạn Xuân_05890,Thái Nguyên,Vạn Xuân_05890,Thái Nguyên,21.403033,105.892857,6068,150.9452736,40.2,0,75,0,0,0,0,0,0,0,0,0,0,0,0
1981,Vĩnh Thông,19,Thái Nguyên,NO,Vĩnh Thông_01981,Thái Nguyên,Vĩnh Thông_01981,Thái Nguyên,22.215815,105.985515,4561,35.20648398,129.55,0,57,0,0,0,0,0,0,0,0,0,0,0,0
5716,Võ Nhai,19,Thái Nguyên,NO,Võ Nhai,Thái Nguyên,Võ Nhai,Thái Nguyên,21.761511,106.077145,17245,172.8302265,99.78,0,215,0,0,0,0,0,0,0,0,0,0,0,0
5641,Vô Tranh,19,Thái Nguyên,NO,Vô Tranh,Thái Nguyên,Vô Tranh,Thái Nguyên,21.70098,105.766013,37675,451.0355561,83.53,0,470,0,0,0,0,0,0,0,0,0,0,0,0
2191,Xuân Dương,19,Thái Nguyên,NO,Xuân Dương_02191,Thái Nguyên,Xuân Dương_02191,Thái Nguyên,21.996089,106.021853,6521,31.5481374,206.7,0,81,0,0,0,0,0,0,0,0,0,0,0,0
2116,Yên Bình,19,Thái Nguyên,NO,Yên Bình_02116,Thái Nguyên,Yên Bình_02116,Thái Nguyên,21.951172,105.956231,14589,122.3704076,119.22,0,182,0,0,0,0,0,0,0,0,0,0,0,0
2083,Yên Phong,19,Thái Nguyên,NO,Yên Phong_02083,Thái Nguyên,Yên Phong_02083,Thái Nguyên,22.08404,105.636103,7268,62.66597689,115.98,0,90,0,0,0,0,0,0,0,0,0,0,0,0
2044,Yên Thịnh,19,Thái Nguyên,NO,Yên Thịnh,Thái Nguyên,Yên Thịnh,Thái Nguyên,22.212767,105.489939,5393,32.52714113,165.8,0,67,0,0,0,0,0,0,0,0,0,0,0,0
5620,Yên Trạch,19,Thái Nguyên,NO,Yên Trạch,Thái Nguyên,Yên Trạch,Thái Nguyên,21.836246,105.71068,23187,205.7774228,112.68,0,289,0,0,0,0,0,0,0,0,0,0,0,0
6196,Ba Sơn,20,Lạng Sơn,NO,Ba Sơn,Lạng Sơn,Ba Sơn,Lạng Sơn,21.906364,106.970733,10259,66.20418172,154.96,0,128,0,0,0,0,0,0,0,0,0,0,0,0
6325,Bắc Sơn,20,Lạng Sơn,NO,Bắc Sơn,Lạng Sơn,Bắc Sơn,Lạng Sơn,21.913478,106.342302,16652,206.9599801,80.46,0,208,0,0,0,0,0,0,0,0,0,0,0,0
6475,Bằng Mạc,20,Lạng Sơn,NO,Bằng Mạc,Lạng Sơn,Bằng Mạc,Lạng Sơn,21.717106,106.522698,13441,114.0808012,117.82,0,168,0,0,0,0,0,0,0,0,0,0,0,0
6112,Bình Gia,20,Lạng Sơn,NO,Bình Gia,Lạng Sơn,Bình Gia,Lạng Sơn,21.971061,106.343413,14781,140.7982473,104.98,0,184,0,0,0,0,0,0,0,0,0,0,0,0
6427,Cai Kinh,20,Lạng Sơn,NO,Cai Kinh,Lạng Sơn,Cai Kinh,Lạng Sơn,21.585456,106.364979,11845,112.2110648,105.56,0,148,0,0,0,0,0,0,0,0,0,0,0,0
6211,Cao Lộc,20,Lạng Sơn,NO,Cao Lộc,Lạng Sơn,Cao Lộc,Lạng Sơn,21.941807,106.810673,682,6.56653187,103.86,0,8,0,0,0,0,0,0,0,0,0,0,0,0
6637,Châu Sơn,20,Lạng Sơn,NO,Châu Sơn_06637,Lạng Sơn,Châu Sơn_06637,Lạng Sơn,21.451344,107.173107,5858,19.44177093,301.31,0,73,0,0,0,0,0,0,0,0,0,0,0,0
6463,Chi Lăng,20,Lạng Sơn,NO,Chi Lăng_06463,Lạng Sơn,Chi Lăng_06463,Lạng Sơn,21.608418,106.535607,27766,346.1663134,80.21,0,347,0,0,0,0,0,0,0,0,0,0,0,0
6481,Chiến Thắng,20,Lạng Sơn,NO,Chiến Thắng,Lạng Sơn,Chiến Thắng,Lạng Sơn,21.724454,106.748643,11388,99.65870307,114.27,0,142,0,0,0,0,0,0,0,0,0,0,0,0
6220,Công Sơn,20,Lạng Sơn,NO,Công Sơn,Lạng Sơn,Công Sơn,Lạng Sơn,21.881,106.865662,6408,75.61954213,84.74,0,80,0,0,0,0,0,0,0,0,0,0,0,0
6280,Điềm He,20,Lạng Sơn,NO,Điềm He,Lạng Sơn,Điềm He,Lạng Sơn,21.94389,106.564874,1117,10.83204034,103.12,0,13,0,0,0,0,0,0,0,0,0,0,0,0
6613,Đình Lập,20,Lạng Sơn,NO,Đình Lập,Lạng Sơn,Đình Lập,Lạng Sơn,21.593682,107.063939,9766,59.31009353,164.66,0,122,0,0,0,0,0,0,0,0,0,0,0,0
6001,Đoàn Kết,20,Lạng Sơn,NO,Đoàn Kết_06001,Lạng Sơn,Đoàn Kết_06001,Lạng Sơn,22.387838,106.264408,17667,73.41062079,240.66,0,220,0,0,0,0,0,0,0,0,0,0,0,0
6184,Đồng Đăng,20,Lạng Sơn,NO,Đồng Đăng,Lạng Sơn,Đồng Đăng,Lạng Sơn,21.947486,106.713,24599,268.6360162,91.57,0,307,0,0,0,0,0,0,0,0,0,0,0,0
5977,Đông Kinh,20,Lạng Sơn,NO,Đông Kinh_05977,Lạng Sơn,Đông Kinh_05977,Lạng Sơn,21.811529,106.77509,49674,907.9510144,54.71,0,620,0,0,0,0,0,0,0,0,0,0,0,0
6073,Hoa Thám,20,Lạng Sơn,NO,Hoa Thám,Lạng Sơn,Hoa Thám,Lạng Sơn,22.180147,106.367801,6038,39.78126235,151.78,0,75,0,0,0,0,0,0,0,0,0,0,0,0
6172,Hoàng Văn Thụ,20,Lạng Sơn,NO,Hoàng Văn Thụ,Lạng Sơn,Hoàng Văn Thụ,Lạng Sơn,21.965302,106.649872,40995,664.4246353,61.7,0,512,0,0,0,0,0,0,0,0,0,0,0,0
6151,Hội Hoan,20,Lạng Sơn,NO,Hội Hoan,Lạng Sơn,Hội Hoan,Lạng Sơn,22.03598,106.482779,7366,62.72673082,117.43,0,92,0,0,0,0,0,0,0,0,0,0,0,0
6079,Hồng Phong,20,Lạng Sơn,NO,Hồng Phong_06079,Lạng Sơn,Hồng Phong_06079,Lạng Sơn,22.066326,106.41422,6781,50.99263047,132.98,0,84,0,0,0,0,0,0,0,0,0,0,0,0
6349,Hưng Vũ,20,Lạng Sơn,NO,Hưng Vũ,Lạng Sơn,Hưng Vũ,Lạng Sơn,21.801318,106.366089,11939,89.60522366,133.24,0,149,0,0,0,0,0,0,0,0,0,0,0,0
6400,Hữu Liên,20,Lạng Sơn,NO,Hữu Liên,Lạng Sơn,Hữu Liên,Lạng Sơn,21.671763,106.373986,8622,70.34921671,122.56,0,107,0,0,0,0,0,0,0,0,0,0,0,0
6385,Hữu Lũng,20,Lạng Sơn,NO,Hữu Lũng,Lạng Sơn,Hữu Lũng,Lạng Sơn,21.516138,106.359572,30382,574.6548137,52.87,0,379,0,0,0,0,0,0,0,0,0,0,0,0
6037,Kháng Chiến,20,Lạng Sơn,NO,Kháng Chiến,Lạng Sơn,Kháng Chiến,Lạng Sơn,22.266777,106.601621,5598,39.42253521,142,0,69,0,0,0,0,0,0,0,0,0,0,0,0
6286,Khánh Khê,20,Lạng Sơn,NO,Khánh Khê,Lạng Sơn,Khánh Khê,Lạng Sơn,21.858297,106.671475,13171,140.6557027,93.64,0,164,0,0,0,0,0,0,0,0,0,0,0,0
6565,Khuất Xá,20,Lạng Sơn,NO,Khuất Xá,Lạng Sơn,Khuất Xá,Lạng Sơn,21.726455,107.0988,9143,73.19670163,124.91,0,114,0,0,0,0,0,0,0,0,0,0,0,0
6625,Kiên Mộc,20,Lạng Sơn,NO,Kiên Mộc,Lạng Sơn,Kiên Mộc,Lạng Sơn,21.622568,107.224512,7856,18.8041553,417.78,0,98,0,0,0,0,0,0,0,0,0,0,0,0
6187,Kỳ Lừa,20,Lạng Sơn,NO,Kỳ Lừa,Lạng Sơn,Kỳ Lừa,Lạng Sơn,21.840712,106.833673,40995,664.4246353,61.7,0,512,0,0,0,0,0,0,0,0,0,0,0,0
6529,Lộc Bình,20,Lạng Sơn,NO,Lộc Bình,Lạng Sơn,Lộc Bình,Lạng Sơn,21.785326,106.907465,22964,290.1326595,79.15,0,287,0,0,0,0,0,0,0,0,0,0,0,0
6601,Lợi Bác,20,Lạng Sơn,NO,Lợi Bác,Lạng Sơn,Lợi Bác,Lạng Sơn,21.637465,106.977849,7055,50.7152613,139.11,0,88,0,0,0,0,0,0,0,0,0,0,0,0
5983,Lương Văn Tri,20,Lạng Sơn,NO,Lương Văn Tri,Lạng Sơn,Lương Văn Tri,Lạng Sơn,21.826875,106.731707,22787,717.4748111,31.76,0,284,0,0,0,0,0,0,0,0,0,0,0,0
6541,Mẫu Sơn,20,Lạng Sơn,NO,Mẫu Sơn,Lạng Sơn,Mẫu Sơn,Lạng Sơn,21.796807,107.02811,9509,69.89855925,136.04,0,118,0,0,0,0,0,0,0,0,0,0,0,0
6526,Na Dương,20,Lạng Sơn,NO,Na Dương,Lạng Sơn,Na Dương,Lạng Sơn,21.683785,106.917143,24001,218.3695751,109.91,0,300,0,0,0,0,0,0,0,0,0,0,0,0
6124,Na Sầm,20,Lạng Sơn,NO,Na Sầm,Lạng Sơn,Na Sầm,Lạng Sơn,22.08012,106.618243,13904,147.1789986,94.47,0,173,0,0,0,0,0,0,0,0,0,0,0,0
6496,Nhân Lý,20,Lạng Sơn,NO,Nhân Lý,Lạng Sơn,Nhân Lý,Lạng Sơn,21.697395,106.65516,10910,86.00031531,126.86,0,136,0,0,0,0,0,0,0,0,0,0,0,0
6376,Nhất Hòa,20,Lạng Sơn,NO,Nhất Hòa,Lạng Sơn,Nhất Hòa,Lạng Sơn,21.737329,106.258029,112,0.77929307,143.72,0,1,0,0,0,0,0,0,0,0,0,0,0,0
6517,Quan Sơn,20,Lạng Sơn,NO,Quan Sơn_06517,Lạng Sơn,Quan Sơn_06517,Lạng Sơn,21.605034,106.726221,7398,75.33604888,98.2,0,92,0,0,0,0,0,0,0,0,0,0,0,0
