DistrictID,DistrictName,ProvinceID,ProvinceName,Region,GID_2,GID_1,NAME_1,NAME_2,GADM_Latitude,GADM_Longitude,Population,Population_Density,Area,Is Strategic Zone Hub,Est Merchant 2026,Distributor Code,Distributor Name,SO,SO OFF,AO M06,Amount (Tax) M06,AO OFF M06,Amount (Tax) OFF M06,AO M05,Amount (Tax) M05,AO OFF M05,Amount (Tax) OFF M05
09877,An Khánh,01,Hà Nội,NO,An Khánh_09877,Hà Nội,An Khánh_09877,Hà Nội,20.982931,105.708572,20843,726.4900662,28.69,0,260,0,0,0,0,0,0,0,0,0,0,0,0
00004,Ba Đình,01,Hà Nội,NO,Ba Đình_00004,Hà Nội,Ba Đình_00004,Hà Nội,21.039687,105.83718,67415,22698.6532,2.97,0,842,0,0,0,0,0,0,0,0,0,0,0,0
09700,Ba Vì,01,Hà Nội,NO,Ba Vì_09700,Hà Nội,Ba Vì_09700,Hà Nội,21.059128,105.337614,11790,145.0719823,81.27,0,147,0,0,0,0,0,0,0,0,0,0,0,0
00292,Bạch Mai,01,Hà Nội,NO,Bạch Mai,Hà Nội,Bạch Mai,Hà Nội,21.002772,105.851432,134339,45538.64407,2.95,0,1679,0,0,0,0,0,0,0,0,0,0,0,0
09676,Bất Bạt,01,Hà Nội,NO,Bất Bạt,Hà Nội,Bất Bạt,Hà Nội,21.159699,105.329456,41540,736.1332624,56.43,0,519,0,0,0,0,0,0,0,0,0,0,0,0
00577,Bát Tràng,01,Hà Nội,NO,Bát Tràng,Hà Nội,Bát Tràng,Hà Nội,20.969554,105.945437,50789,2457.135946,20.67,0,634,0,0,0,0,0,0,0,0,0,0,0,0
10126,Bình Minh,01,Hà Nội,NO,Bình Minh_10126,Hà Nội,Bình Minh_10126,Hà Nội,20.904028,105.757543,86421,2894.206296,29.86,0,1080,0,0,0,0,0,0,0,0,0,0,0,0
00118,Bồ Đề,01,Hà Nội,NO,Bồ Đề,Hà Nội,Bồ Đề,Hà Nội,21.050092,105.875797,124445,9617.078825,12.94,0,1555,0,0,0,0,0,0,0,0,0,0,0,0
00166,Cầu Giấy,01,Hà Nội,NO,Cầu Giấy,Hà Nội,Cầu Giấy,Hà Nội,21.02859,105.789587,77258,20657.21925,3.74,0,965,0,0,0,0,0,0,0,0,0,0,0,0
10237,Chương Dương,01,Hà Nội,NO,Chương Dương,Hà Nội,Chương Dương,Hà Nội,20.835203,105.898197,62180,2152.301835,28.89,0,777,0,0,0,0,0,0,0,0,0,0,0,0
10015,Chương Mỹ,01,Hà Nội,NO,Chương Mỹ,Hà Nội,Chương Mỹ,Hà Nội,20.925771,105.702604,91148,2343.136247,38.9,0,1139,0,0,0,0,0,0,0,0,0,0,0,0
10330,Chuyên Mỹ,01,Hà Nội,NO,Chuyên Mỹ,Hà Nội,Chuyên Mỹ,Hà Nội,20.715483,105.881369,46509,1308.638154,35.54,0,581,0,0,0,0,0,0,0,0,0,0,0,0
09634,Cổ Đô,01,Hà Nội,NO,Cổ Đô,Hà Nội,Cổ Đô,Hà Nội,21.270688,105.39788,73308,1376.676056,53.25,0,916,0,0,0,0,0,0,0,0,0,0,0,0
00082,Cửa Nam,01,Hà Nội,NO,Cửa Nam,Hà Nội,Cửa Nam,Hà Nội,21.022791,105.85121,54692,32554.7619,1.68,0,683,0,0,0,0,0,0,0,0,0,0,0,0
00430,Đa Phúc,01,Hà Nội,NO,Đa Phúc,Hà Nội,Đa Phúc,Hà Nội,21.247608,105.912913,86727,1567.733189,55.32,0,1084,0,0,0,0,0,0,0,0,0,0,0,0
00637,Đại Mỗ,01,Hà Nội,NO,Đại Mỗ,Hà Nội,Đại Mỗ,Hà Nội,20.993346,105.776689,83423,10299.1358,8.1,0,1042,0,0,0,0,0,0,0,0,0,0,0,0
00664,Đại Thanh,01,Hà Nội,NO,Đại Thanh,Hà Nội,Đại Thanh,Hà Nội,20.934164,105.818844,95963,5072.040169,18.92,0,1199,0,0,0,0,0,0,0,0,0,0,0,0
10342,Đại Xuyên,01,Hà Nội,NO,Đại Xuyên,Hà Nội,Đại Xuyên,Hà Nội,20.696674,105.953555,77662,1503.329462,51.66,0,970,0,0,0,0,0,0,0,0,0,0,0,0
10180,Dân Hòa,01,Hà Nội,NO,Dân Hòa,Hà Nội,Dân Hòa,Hà Nội,20.810729,105.79478,65064,1693.052303,38.43,0,813,0,0,0,0,0,0,0,0,0,0,0,0
09784,Đan Phượng,01,Hà Nội,NO,Đan Phượng,Hà Nội,Đan Phượng,Hà Nội,21.094528,105.668574,49381,3227.51634,15.3,0,617,0,0,0,0,0,0,0,0,0,0,0,0
00316,Định Công,01,Hà Nội,NO,Định Công,Hà Nội,Định Công,Hà Nội,20.977947,105.824517,88648,16600.74906,5.34,0,1108,0,0,0,0,0,0,0,0,0,0,0,0
09616,Đoài Phương,01,Hà Nội,NO,Đoài Phương,Hà Nội,Đoài Phương,Hà Nội,21.063981,105.494895,41293,723.1698774,57.1,0,516,0,0,0,0,0,0,0,0,0,0,0,0
00454,Đông Anh,01,Hà Nội,NO,Đông Anh,Hà Nội,Đông Anh,Hà Nội,21.110913,105.875918,122532,2517.091208,48.68,0,1531,0,0,0,0,0,0,0,0,0,0,0,0
00235,Đống Đa,01,Hà Nội,NO,Đống Đa,Hà Nội,Đống Đa,Hà Nội,21.010992,105.818233,84352,40749.75845,2.07,0,1054,0,0,0,0,0,0,0,0,0,0,0,0
00602,Đông Ngạc,01,Hà Nội,NO,Đông Ngạc,Hà Nội,Đông Ngạc,Hà Nội,21.077624,105.779164,86618,9787.344633,8.85,0,1082,0,0,0,0,0,0,0,0,0,0,0,0
09856,Dương Hòa,01,Hà Nội,NO,Dương Hòa,Hà Nội,Dương Hòa,Hà Nội,21.048491,105.671186,6099,350.3159104,17.41,0,76,0,0,0,0,0,0,0,0,0,0,0,0
09886,Dương Nội,01,Hà Nội,NO,Dương Nội,Hà Nội,Dương Nội,Hà Nội,20.973768,105.749108,58155,7361.392405,7.9,0,726,0,0,0,0,0,0,0,0,0,0,0,0
00565,Gia Lâm,01,Hà Nội,NO,Gia Lâm_00565,Hà Nội,Gia Lâm_00565,Hà Nội,20.998838,105.95364,20931,813.8024883,25.72,0,261,0,0,0,0,0,0,0,0,0,0,0,0
00025,Giảng Võ,01,Hà Nội,NO,Giảng Võ,Hà Nội,Giảng Võ,Hà Nội,21.026078,105.816743,100604,38693.84615,2.6,0,1257,0,0,0,0,0,0,0,0,0,0,0,0
09982,Hạ Bằng,01,Hà Nội,NO,Hạ Bằng,Hà Nội,Hạ Bằng,Hà Nội,21.01611,105.571147,40145,1249.066584,32.14,0,501,0,0,0,0,0,0,0,0,0,0,0,0
09556,Hà Đông,01,Hà Nội,NO,Hà Đông_09556,Hà Nội,Hà Đông_09556,Hà Nội,20.974336,105.7779,192020,21335.55556,9,0,2400,0,0,0,0,0,0,0,0,0,0,0,0
00256,Hai Bà Trưng,01,Hà Nội,NO,Hai Bà Trưng,Hà Nội,Hai Bà Trưng,Hà Nội,21.014645,105.852223,91032,34351.69811,2.65,0,1137,0,0,0,0,0,0,0,0,0,0,0,0
09772,Hát Môn,01,Hà Nội,NO,Hát Môn,Hà Nội,Hát Môn,Hà Nội,21.089081,105.619918,74885,1987.921423,37.67,0,936,0,0,0,0,0,0,0,0,0,0,0,0
09988,Hòa Lạc,01,Hà Nội,NO,Hòa Lạc_09988,Hà Nội,Hòa Lạc_09988,Hà Nội,21.013652,105.506794,31999,904.6932429,35.37,0,399,0,0,0,0,0,0,0,0,0,0,0,0
10096,Hòa Phú,01,Hà Nội,NO,Hòa Phú_10096,Hà Nội,Hòa Phú_10096,Hà Nội,20.832675,105.725178,50618,1694.609977,29.87,0,632,0,0,0,0,0,0,0,0,0,0,0,0
10417,Hòa Xá,01,Hà Nội,NO,Hòa Xá,Hà Nội,Hòa Xá,Hà Nội,20.668276,105.798978,71983,1780.875804,40.42,0,899,0,0,0,0,0,0,0,0,0,0,0,0
09832,Hoài Đức,01,Hà Nội,NO,Hoài Đức_09832,Hà Nội,Hoài Đức_09832,Hà Nội,21.064596,105.705792,49257,2944.231919,16.73,0,615,0,0,0,0,0,0,0,0,0,0,0,0
00070,Hoàn Kiếm,01,Hà Nội,NO,Hoàn Kiếm,Hà Nội,Hoàn Kiếm,Hà Nội,21.032421,105.849767,109176,57160.20942,1.91,0,1364,0,0,0,0,0,0,0,0,0,0,0,0
00337,Hoàng Liệt,01,Hà Nội,NO,Hoàng Liệt,Hà Nội,Hoàng Liệt,Hà Nội,20.960833,105.828259,5787,1432.425743,4.04,0,72,0,0,0,0,0,0,0,0,0,0,0,0
00331,Hoàng Mai,01,Hà Nội,NO,Hoàng Mai_00331,Hà Nội,Hoàng Mai_00331,Hà Nội,20.974408,105.862445,46110,5100.663717,9.04,0,576,0,0,0,0,0,0,0,0,0,0,0,0
00097,Hồng Hà,01,Hà Nội,NO,Hồng Hà,Hà Nội,Hồng Hà,Hà Nội,21.048095,105.852419,127818,8470.377734,15.09,0,1597,0,0,0,0,0,0,0,0,0,0,0,0
10465,Hồng Sơn,01,Hà Nội,NO,Hồng Sơn_10465,Hà Nội,Hồng Sơn_10465,Hà Nội,20.716002,105.713751,30974,569.584406,54.38,0,387,0,0,0,0,0,0,0,0,0,0,0,0
10210,Hồng Vân,01,Hà Nội,NO,Hồng Vân,Hà Nội,Hồng Vân,Hà Nội,20.879943,105.898711,60844,2480.391358,24.53,0,760,0,0,0,0,0,0,0,0,0,0,0,0
09931,Hưng Đạo,01,Hà Nội,NO,Hưng Đạo_09931,Hà Nội,Hưng Đạo_09931,Hà Nội,20.969512,105.657909,9698,389.4779116,24.9,0,121,0,0,0,0,0,0,0,0,0,0,0,0
10489,Hương Sơn,01,Hà Nội,NO,Hương Sơn_10489,Hà Nội,Hương Sơn_10489,Hà Nội,20.6205,105.752217,32644,472.34843,69.11,0,408,0,0,0,0,0,0,0,0,0,0,0,0
00364,Khương Đình,01,Hà Nội,NO,Khương Đình,Hà Nội,Khương Đình,Hà Nội,20.990033,105.814097,89461,28858.3871,3.1,0,1118,0,0,0,0,0,0,0,0,0,0,0,0
09552,Kiến Hưng,01,Hà Nội,NO,Kiến Hưng_09552,Hà Nội,Kiến Hưng_09552,Hà Nội,20.952922,105.777051,73439,11043.45865,6.65,0,917,0,0,0,0,0,0,0,0,0,0,0,0
09910,Kiều Phú,01,Hà Nội,NO,Kiều Phú,Hà Nội,Kiều Phú,Hà Nội,20.973882,105.602157,63125,1828.120475,34.53,0,789,0,0,0,0,0,0,0,0,0,0,0,0
00382,Kim Anh,01,Hà Nội,NO,Kim Anh,Hà Nội,Kim Anh,Hà Nội,21.296454,105.773674,50351,953.6174242,52.8,0,629,0,0,0,0,0,0,0,0,0,0,0,0
00229,Kim Liên,01,Hà Nội,NO,Kim Liên_00229,Hà Nội,Kim Liên_00229,Hà Nội,21.006114,105.832081,113122,45984.55285,2.46,0,1414,0,0,0,0,0,0,0,0,0,0,0,0
00199,Láng,01,Hà Nội,NO,Láng,Hà Nội,Láng,Hà Nội,21.020992,105.80479,63384,33714.89362,1.88,0,792,0,0,0,0,0,0,0,0,0,0,0,0
09787,Liên Minh,01,Hà Nội,NO,Liên Minh_09787,Hà Nội,Liên Minh_09787,Hà Nội,21.130349,105.650986,24305,1031.183708,23.57,0,303,0,0,0,0,0,0,0,0,0,0,0,0
00328,Lĩnh Nam,01,Hà Nội,NO,Lĩnh Nam,Hà Nội,Lĩnh Nam,Hà Nội,20.974408,105.895071,21468,1976.79558,10.86,0,268,0,0,0,0,0,0,0,0,0,0,0,0
00145,Long Biên,01,Hà Nội,NO,Long Biên,Hà Nội,Long Biên,Hà Nội,21.023614,105.899532,65201,3424.422269,19.04,0,815,0,0,0,0,0,0,0,0,0,0,0,0
09022,Mê Linh,01,Hà Nội,NO,Mê Linh,Hà Nội,Mê Linh,Hà Nội,21.146969,105.734733,64485,1844.009151,34.97,0,806,0,0,0,0,0,0,0,0,0,0,0,0
09661,Minh Châu,01,Hà Nội,NO,Minh Châu_09661,Hà Nội,Minh Châu_09661,Hà Nội,21.209224,105.451214,45990,4439.189189,10.36,0,574,0,0,0,0,0,0,0,0,0,0,0,0
10441,Mỹ Đức,01,Hà Nội,NO,Mỹ Đức_10441,Hà Nội,Mỹ Đức_10441,Hà Nội,20.654002,105.697512,62719,1189.436753,52.73,0,783,0,0,0,0,0,0,0,0,0,0,0,0
00685,Nam Phù,01,Hà Nội,NO,Nam Phù,Hà Nội,Nam Phù,Hà Nội,20.918307,105.887488,44346,3227.510917,13.74,0,554,0,0,0,0,0,0,0,0,0,0,0,0
00160,Nghĩa Đô,01,Hà Nội,NO,Nghĩa Đô_00160,Hà Nội,Nghĩa Đô_00160,Hà Nội,21.043627,105.793736,130189,29997.46544,4.34,0,1627,0,0,0,0,0,0,0,0,0,0,0,0
00008,Ngọc Hà,01,Hà Nội,NO,Ngọc Hà,Hà Nội,Ngọc Hà,Hà Nội,21.038538,105.816622,96978,36185.8209,2.68,0,1212,0,0,0,0,0,0,0,0,0,0,0,0
00679,Ngọc Hồi,01,Hà Nội,NO,Ngọc Hồi,Hà Nội,Ngọc Hồi,Hà Nội,20.913754,105.834149,45478,3406.59176,13.35,0,568,0,0,0,0,0,0,0,0,0,0,0,0
00433,Nội Bài,01,Hà Nội,NO,Nội Bài,Hà Nội,Nội Bài,Hà Nội,21.236049,105.773554,73062,1414.833462,51.64,0,913,0,0,0,0,0,0,0,0,0,0,0,0
00190,Ô Chợ Dừa,01,Hà Nội,NO,Ô Chợ Dừa,Hà Nội,Ô Chợ Dừa,Hà Nội,21.022296,105.825446,73916,40391.25683,1.83,0,923,0,0,0,0,0,0,0,0,0,0,0,0
09817,Ô Diên,01,Hà Nội,NO,Ô Diên,Hà Nội,Ô Diên,Hà Nội,21.105655,105.710537,101094,3153.275109,32.06,0,1263,0,0,0,0,0,0,0,0,0,0,0,0
09952,Phú Cát,01,Hà Nội,NO,Phú Cát,Hà Nội,Phú Cát,Hà Nội,20.949707,105.557066,44933,877.4262839,51.21,0,561,0,0,0,0,0,0,0,0,0,0,0,0
00619,Phú Diễn,01,Hà Nội,NO,Phú Diễn,Hà Nội,Phú Diễn,Hà Nội,21.048157,105.763636,77348,12296.97933,6.29,0,966,0,0,0,0,0,0,0,0,0,0,0,0
00541,Phù Đổng,01,Hà Nội,NO,Phù Đổng,Hà Nội,Phù Đổng,Hà Nội,21.079381,105.932516,115586,2777.174435,41.62,0,1444,0,0,0,0,0,0,0,0,0,0,0,0
09568,Phú Lương,01,Hà Nội,NO,Phú Lương_09568,Hà Nội,Phú Lương_09568,Hà Nội,20.938517,105.768066,53938,5738.085106,9.4,0,674,0,0,0,0,0,0,0,0,0,0,0,0
10030,Phú Nghĩa,01,Hà Nội,NO,Phú Nghĩa_10030,Hà Nội,Phú Nghĩa_10030,Hà Nội,20.918487,105.639652,3516,87.35403727,40.25,0,43,0,0,0,0,0,0,0,0,0,0,0,0
00091,Phú Thượng,01,Hà Nội,NO,Phú Thượng,Hà Nội,Phú Thượng,Hà Nội,21.084201,105.802051,40769,5654.507628,7.21,0,509,0,0,0,0,0,0,0,0,0,0,0,0
10273,Phú Xuyên,01,Hà Nội,NO,Phú Xuyên_10273,Hà Nội,Phú Xuyên_10273,Hà Nội,20.762517,105.92245,23901,398.2172609,60.02,0,298,0,0,0,0,0,0,0,0,0,0,0,0
09739,Phúc Lộc,01,Hà Nội,NO,Phúc Lộc_09739,Hà Nội,Phúc Lộc_09739,Hà Nội,21.146207,105.571873,29275,711.4216282,41.15,0,365,0,0,0,0,0,0,0,0,0,0,0,0
00136,Phúc Lợi,01,Hà Nội,NO,Phúc Lợi_00136,Hà Nội,Phúc Lợi_00136,Hà Nội,21.04166,105.91729,6924,665.129683,10.41,0,86,0,0,0,0,0,0,0,0,0,0,0,0
10459,Phúc Sơn,01,Hà Nội,NO,Phúc Sơn,Hà Nội,Phúc Sơn,Hà Nội,20.780439,105.6844,56074,1137.172987,49.31,0,700,0,0,0,0,0,0,0,0,0,0,0,0
00466,Phúc Thịnh,01,Hà Nội,NO,Phúc Thịnh,Hà Nội,Phúc Thịnh,Hà Nội,21.158587,105.808802,99482,2333.614825,42.63,0,1243,0,0,0,0,0,0,0,0,0,0,0,0
09715,Phúc Thọ,01,Hà Nội,NO,Phúc Thọ,Hà Nội,Phúc Thọ,Hà Nội,21.107502,105.546059,78200,1971.75996,39.66,0,977,0,0,0,0,0,0,0,0,0,0,0,0
10279,Phượng Dực,01,Hà Nội,NO,Phượng Dực,Hà Nội,Phượng Dực,Hà Nội,20.772153,105.842208,62499,1398.500783,44.69,0,781,0,0,0,0,0,0,0,0,0,0,0,0
00352,Phương Liệt,01,Hà Nội,NO,Phương Liệt,Hà Nội,Phương Liệt,Hà Nội,20.99363,105.8316,84993,26560.3125,3.2,0,1062,0,0,0,0,0,0,0,0,0,0,0,0
10072,Quảng Bị,01,Hà Nội,NO,Quảng Bị,Hà Nội,Quảng Bị,Hà Nội,20.871662,105.699032,65285,1757.808293,37.14,0,816,0,0,0,0,0,0,0,0,0,0,0,0
08974,Quang Minh,01,Hà Nội,NO,Quang Minh,Hà Nội,Quang Minh,Hà Nội,21.198946,105.752205,72185,2243.86074,32.17,0,902,0,0,0,0,0,0,0,0,0,0,0,0
09619,Quảng Oai,01,Hà Nội,NO,Quảng Oai,Hà Nội,Quảng Oai,Hà Nội,21.177794,105.429568,61172,1241.81892,49.26,0,764,0,0,0,0,0,0,0,0,0,0,0,0
09895,Quốc Oai,01,Hà Nội,NO,Quốc Oai,Hà Nội,Quốc Oai,Hà Nội,21.008489,105.652483,65675,2736.458333,24,0,820,0,0,0,0,0,0,0,0,0,0,0,0
00376,Sóc Sơn,01,Hà Nội,NO,Sóc Sơn,Hà Nội,Sóc Sơn,Hà Nội,21.245633,105.850029,122213,1790.929074,68.24,0,1527,0,0,0,0,0,0,0,0,0,0,0,0
09871,Sơn Đồng,01,Hà Nội,NO,Sơn Đồng,Hà Nội,Sơn Đồng,Hà Nội,21.026945,105.708584,65595,3041.029207,21.57,0,819,0,0,0,0,0,0,0,0,0,0,0,0
09574,Sơn Tây,01,Hà Nội,NO,Sơn Tây_09574,Hà Nội,Sơn Tây_09574,Hà Nội,21.1427,105.486925,73924,3202.946274,23.08,0,924,0,0,0,0,0,0,0,0,0,0,0,0
09694,Suối Hai,01,Hà Nội,NO,Suối Hai,Hà Nội,Suối Hai,Hà Nội,21.124315,105.376275,36496,707.8355314,51.56,0,456,0,0,0,0,0,0,0,0,0,0,0,0
10144,Tam Hưng,01,Hà Nội,NO,Tam Hưng,Hà Nội,Tam Hưng,Hà Nội,20.878525,105.793496,40525,1376.061121,29.45,0,506,0,0,0,0,0,0,0,0,0,0,0,0
00103,Tây Hồ,01,Hà Nội,NO,Tây Hồ_00103,Hà Nội,Tây Hồ_00103,Hà Nội,21.061669,105.818587,103806,9683.395522,10.72,0,1297,0,0,0,0,0,0,0,0,0,0,0,0
00634,Tây Mỗ,01,Hà Nội,NO,Tây Mỗ,Hà Nội,Tây Mỗ,Hà Nội,20.999166,105.748331,48619,8744.42446,5.56,0,607,0,0,0,0,0,0,0,0,0,0,0,0
10003,Tây Phương,01,Hà Nội,NO,Tây Phương,Hà Nội,Tây Phương,Hà Nội,21.040142,105.611578,103549,3333.837733,31.06,0,1294,0,0,0,0,0,0,0,0,0,0,0,0
00613,Tây Tựu,01,Hà Nội,NO,Tây Tựu,Hà Nội,Tây Tựu,Hà Nội,21.066007,105.740132,40887,5422.679045,7.54,0,511,0,0,0,0,0,0,0,0,0,0,0,0
09955,Thạch Thất,01,Hà Nội,NO,Thạch Thất,Hà Nội,Thạch Thất,Hà Nội,21.06664,105.561778,59766,1871.782023,31.93,0,747,0,0,0,0,0,0,0,0,0,0,0,0
00643,Thanh Liệt,01,Hà Nội,NO,Thanh Liệt,Hà Nội,Thanh Liệt,Hà Nội,20.97085,105.80224,79043,12273.75776,6.44,0,988,0,0,0,0,0,0,0,0,0,0,0,0
10114,Thanh Oai,01,Hà Nội,NO,Thanh Oai,Hà Nội,Thanh Oai,Hà Nội,20.844085,105.767749,56479,2102.717796,26.86,0,705,0,0,0,0,0,0,0,0,0,0,0,0
00640,Thanh Trì,01,Hà Nội,NO,Thanh Trì,Hà Nội,Thanh Trì,Hà Nội,20.938888,105.861098,53284,5249.655172,10.15,0,666,0,0,0,0,0,0,0,0,0,0,0,0
00367,Thanh Xuân,01,Hà Nội,NO,Thanh Xuân,Hà Nội,Thanh Xuân,Hà Nội,20.997183,105.802575,110228,34020.98765,3.24,0,1377,0,0,0,0,0,0,0,0,0,0,0,0
00493,Thiên Lộc,01,Hà Nội,NO,Thiên Lộc,Hà Nội,Thiên Lộc,Hà Nội,21.125905,105.761179,77342,2766.165951,27.96,0,966,0,0,0,0,0,0,0,0,0,0,0,0
00475,Thư Lâm,01,Hà Nội,NO,Thư Lâm,Hà Nội,Thư Lâm,Hà Nội,21.162653,105.884466,10635,242.5866788,43.84,0,132,0,0,0,0,0,0,0,0,0,0,0,0
00562,Thuận An,01,Hà Nội,NO,Thuận An_00562,Hà Nội,Thuận An_00562,Hà Nội,21.032205,105.975447,23457,790.5965622,29.67,0,293,0,0,0,0,0,0,0,0,0,0,0,0
00598,Thượng Cát,01,Hà Nội,NO,Thượng Cát,Hà Nội,Thượng Cát,Hà Nội,21.08665,105.748758,25600,1733.24306,14.77,0,320,0,0,0,0,0,0,0,0,0,0,0,0
10231,Thượng Phúc,01,Hà Nội,NO,Thượng Phúc,Hà Nội,Thượng Phúc,Hà Nội,20.828894,105.848131,47137,1630.473884,28.91,0,589,0,0,0,0,0,0,0,0,0,0,0,0
10183,Thường Tín,01,Hà Nội,NO,Thường Tín,Hà Nội,Thường Tín,Hà Nội,20.870095,105.844259,73342,2592.506186,28.29,0,916,0,0,0,0,0,0,0,0,0,0,0,0
08995,Tiến Thắng,01,Hà Nội,NO,Tiến Thắng,Hà Nội,Tiến Thắng,Hà Nội,21.207576,105.684919,66610,1832.966428,36.34,0,832,0,0,0,0,0,0,0,0,0,0,0,0
10081,Trần Phú,01,Hà Nội,NO,Trần Phú_10081,Hà Nội,Trần Phú_10081,Hà Nội,20.837087,105.66268,7308,164.7430117,44.36,0,91,0,0,0,0,0,0,0,0,0,0,0,0
00385,Trung Giã,01,Hà Nội,NO,Trung Giã,Hà Nội,Trung Giã,Hà Nội,21.331276,105.832329,63571,820.0593395,77.52,0,794,0,0,0,0,0,0,0,0,0,0,0,0
00592,Từ Liêm,01,Hà Nội,NO,Từ Liêm,Hà Nội,Từ Liêm,Hà Nội,21.021225,105.767155,124413,12221.31631,10.18,0,1555,0,0,0,0,0,0,0,0,0,0,0,0
09604,Tùng Thiện,01,Hà Nội,NO,Tùng Thiện,Hà Nội,Tùng Thiện,Hà Nội,21.122402,105.458743,43599,1348.144712,32.34,0,544,0,0,0,0,0,0,0,0,0,0,0,0
00322,Tương Mai,01,Hà Nội,NO,Tương Mai,Hà Nội,Tương Mai,Hà Nội,20.990295,105.852893,141307,39692.97753,3.56,0,1766,0,0,0,0,0,0,0,0,0,0,0,0
10402,Ứng Hòa,01,Hà Nội,NO,Ứng Hòa,Hà Nội,Ứng Hòa,Hà Nội,20.692291,105.841722,6609,97.47787611,67.8,0,82,0,0,0,0,0,0,0,0,0,0,0,0
10369,Ứng Thiên,01,Hà Nội,NO,Ứng Thiên,Hà Nội,Ứng Thiên,Hà Nội,20.773452,105.770665,55947,1456.953125,38.4,0,699,0,0,0,0,0,0,0,0,0,0,0,0
10354,Vân Đình,01,Hà Nội,NO,Vân Đình,Hà Nội,Vân Đình,Hà Nội,20.736033,105.775406,63066,1516.009615,41.6,0,788,0,0,0,0,0,0,0,0,0,0,0,0
00226,Văn Miếu - Quốc Tử Giám,01,Hà Nội,NO,Văn Miếu - Quốc Tử Giám,Hà Nội,Văn Miếu - Quốc Tử Giám,Hà Nội,21.023392,105.836907,109490,57026.04167,1.92,0,1368,0,0,0,0,0,0,0,0,0,0,0,0
09664,Vật Lại,01,Hà Nội,NO,Vật Lại,Hà Nội,Vật Lại,Hà Nội,21.211196,105.379367,60734,1173.603865,51.75,0,759,0,0,0,0,0,0,0,0,0,0,0,0
00127,Việt Hưng,01,Hà Nội,NO,Việt Hưng_00127,Hà Nội,Việt Hưng_00127,Hà Nội,21.063094,105.906058,53692,4158.946553,12.91,0,671,0,0,0,0,0,0,0,0,0,0,0,0
00301,Vĩnh Hưng,01,Hà Nội,NO,Vĩnh Hưng_00301,Hà Nội,Vĩnh Hưng_00301,Hà Nội,20.991212,105.882863,70047,15670.4698,4.47,0,875,0,0,0,0,0,0,0,0,0,0,0,0
00508,Vĩnh Thanh,01,Hà Nội,NO,Vĩnh Thanh_00508,Hà Nội,Vĩnh Thanh_00508,Hà Nội,21.103515,105.817367,20000,888.0994671,22.52,0,250,0,0,0,0,0,0,0,0,0,0,0,0
00283,Vĩnh Tuy,01,Hà Nội,NO,Vĩnh Tuy_00283,Hà Nội,Vĩnh Tuy_00283,Hà Nội,20.998187,105.867668,93916,40307.29614,2.33,0,1173,0,0,0,0,0,0,0,0,0,0,0,0
00611,Xuân Đỉnh,01,Hà Nội,NO,Xuân Đỉnh,Hà Nội,Xuân Đỉnh,Hà Nội,21.065535,105.795454,50448,9239.56044,5.46,0,630,0,0,0,0,0,0,0,0,0,0,0,0
10045,Xuân Mai,01,Hà Nội,NO,Xuân Mai,Hà Nội,Xuân Mai,Hà Nội,20.861158,105.602436,6978,137.5788644,50.72,0,87,0,0,0,0,0,0,0,0,0,0,0,0
00622,Xuân Phương,01,Hà Nội,NO,Xuân Phương,Hà Nội,Xuân Phương,Hà Nội,21.031498,105.748299,108809,10065.58742,10.81,0,1360,0,0,0,0,0,0,0,0,0,0,0,0
09706,Yên Bài,01,Hà Nội,NO,Yên Bài,Hà Nội,Yên Bài,Hà Nội,21.058233,105.418226,22204,325.6195923,68.19,0,277,0,0,0,0,0,0,0,0,0,0,0,0
00175,Yên Hòa,01,Hà Nội,NO,Yên Hòa_00175,Hà Nội,Yên Hòa_00175,Hà Nội,21.014064,105.795565,79863,19478.78049,4.1,0,998,0,0,0,0,0,0,0,0,0,0,0,0
08980,Yên Lãng,01,Hà Nội,NO,Yên Lãng_08980,Hà Nội,Yên Lãng_08980,Hà Nội,21.173515,105.66409,19138,427.0921669,44.81,0,239,0,0,0,0,0,0,0,0,0,0,0,0
09562,Yên Nghĩa,01,Hà Nội,NO,Yên Nghĩa,Hà Nội,Yên Nghĩa,Hà Nội,20.937906,105.737384,51469,3905.08346,13.18,0,643,0,0,0,0,0,0,0,0,0,0,0,0
00340,Yên Sở,01,Hà Nội,NO,Yên Sở,Hà Nội,Yên Sở,Hà Nội,20.956508,105.857083,42454,7567.557932,5.61,0,530,0,0,0,0,0,0,0,0,0,0,0,0
04930,Yên Xuân,01,Hà Nội,NO,Yên Xuân_04930,Hà Nội,Yên Xuân_04930,Hà Nội,20.973915,105.481512,28726,368.2348417,78.01,0,359,0,0,0,0,0,0,0,0,0,0,0,0
01708,Bạch Đằng,04,Cao Bằng,NO,Bạch Đằng_01708,Cao Bằng,Bạch Đằng_01708,Cao Bằng,22.587749,106.159232,4984,35.19525457,141.61,0,62,0,0,0,0,0,0,0,0,0,0,0,0
01321,Bảo Lạc,04,Cao Bằng,NO,Bảo Lạc,Cao Bằng,Bảo Lạc,Cao Bằng,22.939562,105.637613,11289,95.1053075,118.7,0,141,0,0,0,0,0,0,0,0,0,0,0,0
01290,Bảo Lâm,04,Cao Bằng,NO,Bảo Lâm,Cao Bằng,Bảo Lâm,Cao Bằng,22.831792,105.54918,14720,90.96527005,161.82,0,184,0,0,0,0,0,0,0,0,0,0,0,0
01636,Bế Văn Đàn,04,Cao Bằng,NO,Bế Văn Đàn,Cao Bằng,Bế Văn Đàn,Cao Bằng,22.615252,106.533677,10630,89.84870256,118.31,0,132,0,0,0,0,0,0,0,0,0,0,0,0
01738,Ca Thành,04,Cao Bằng,NO,Ca Thành,Cao Bằng,Ca Thành,Cao Bằng,22.726917,105.820833,4856,44.20573509,109.85,0,60,0,0,0,0,0,0,0,0,0,0,0,0
01366,Cần Yên,04,Cao Bằng,NO,Cần Yên,Cao Bằng,Cần Yên,Cao Bằng,22.885824,105.924188,10756,74.36393805,144.64,0,134,0,0,0,0,0,0,0,0,0,0,0,0
01789,Canh Tân,04,Cao Bằng,NO,Canh Tân,Cao Bằng,Canh Tân,Cao Bằng,22.50624,106.270541,4679,35.35055908,132.36,0,58,0,0,0,0,0,0,0,0,0,0,0,0
01327,Cô Ba,04,Cao Bằng,NO,Cô Ba,Cao Bằng,Cô Ba,Cao Bằng,23.008349,105.720578,8706,64.71900089,134.52,0,108,0,0,0,0,0,0,0,0,0,0,0,0
01324,Cốc Pàng,04,Cao Bằng,NO,Cốc Pàng,Cao Bằng,Cốc Pàng,Cao Bằng,23.045931,105.588093,10506,61.69837914,170.28,0,131,0,0,0,0,0,0,0,0,0,0,0,0
01501,Đàm Thuỷ,04,Cao Bằng,NO,Đàm Thuỷ,Cao Bằng,Đàm Thuỷ,Cao Bằng,22.836622,106.673364,12732,111.0704004,114.63,0,159,0,0,0,0,0,0,0,0,0,0,0,0
01489,Đình Phong,04,Cao Bằng,NO,Đình Phong,Cao Bằng,Đình Phong,Cao Bằng,22.889386,106.559213,11174,98.21569834,113.77,0,139,0,0,0,0,0,0,0,0,0,0,0,0
01525,Đoài Dương,04,Cao Bằng,NO,Đoài Dương,Cao Bằng,Đoài Dương,Cao Bằng,22.764267,106.517363,12997,113.5307477,114.48,0,162,0,0,0,0,0,0,0,0,0,0,0,0
01594,Độc Lập,04,Cao Bằng,NO,Độc Lập,Cao Bằng,Độc Lập,Cao Bằng,22.718267,106.490953,87,0.851188729,102.21,0,1,0,0,0,0,0,0,0,0,0,0,0,0
01786,Đông Khê,04,Cao Bằng,NO,Đông Khê,Cao Bằng,Đông Khê,Cao Bằng,22.418381,106.359783,9433,75.30134909,125.27,0,117,0,0,0,0,0,0,0,0,0,0,0,0
01822,Đức Long,04,Cao Bằng,NO,Đức Long,Cao Bằng,Đức Long,Cao Bằng,22.438605,106.514193,5428,50.76218087,106.93,0,67,0,0,0,0,0,0,0,0,0,0,0,0
01558,Hạ Lang,04,Cao Bằng,NO,Hạ Lang,Cao Bằng,Hạ Lang,Cao Bằng,22.647964,106.713746,8388,103.3896216,81.13,0,104,0,0,0,0,0,0,0,0,0,0,0,0
01438,Hà Quảng,04,Cao Bằng,NO,Hà Quảng,Cao Bằng,Hà Quảng,Cao Bằng,22.847696,106.148814,11401,101.5679287,112.25,0,142,0,0,0,0,0,0,0,0,0,0,0,0
01618,Hạnh Phúc,04,Cao Bằng,NO,Hạnh Phúc_01618,Cao Bằng,Hạnh Phúc_01618,Cao Bằng,22.625011,106.415157,14269,112.549298,126.78,0,178,0,0,0,0,0,0,0,0,0,0,0,0
01654,Hòa An,04,Cao Bằng,NO,Hòa An_01654,Cao Bằng,Hòa An_01654,Cao Bằng,22.753632,106.198188,34149,351.9426981,97.03,0,426,0,0,0,0,0,0,0,0,0,0,0,0
01351,Hưng Đạo,04,Cao Bằng,NO,Hưng Đạo_01351,Cao Bằng,Hưng Đạo_01351,Cao Bằng,22.83837,105.681963,9698,79.21261129,122.43,0,121,0,0,0,0,0,0,0,0,0,0,0,0
01354,Huy Giáp,04,Cao Bằng,NO,Huy Giáp,Cao Bằng,Huy Giáp,Cao Bằng,22.796703,105.777478,7644,57.14712919,133.76,0,95,0,0,0,0,0,0,0,0,0,0,0,0
01336,Khánh Xuân,04,Cao Bằng,NO,Khánh Xuân,Cao Bằng,Khánh Xuân,Cao Bằng,22.928745,105.735557,6804,61.8770462,109.96,0,85,0,0,0,0,0,0,0,0,0,0,0,0
01792,Kim Đồng,04,Cao Bằng,NO,Kim Đồng,Cao Bằng,Kim Đồng,Cao Bằng,22.527627,106.350449,6278,56.02355881,112.06,0,78,0,0,0,0,0,0,0,0,0,0,0,0
01393,Lũng Nặm,04,Cao Bằng,NO,Lũng Nặm,Cao Bằng,Lũng Nặm,Cao Bằng,22.932009,106.108184,7486,76.70867917,97.59,0,93,0,0,0,0,0,0,0,0,0,0,0,0
01294,Lý Bôn,04,Cao Bằng,NO,Lý Bôn,Cao Bằng,Lý Bôn,Cao Bằng,22.924852,105.525561,12241,70.65512266,173.25,0,153,0,0,0,0,0,0,0,0,0,0,0,0
01537,Lý Quốc,04,Cao Bằng,NO,Lý Quốc,Cao Bằng,Lý Quốc,Cao Bằng,22.788167,106.763731,6185,60.53043648,102.18,0,77,0,0,0,0,0,0,0,0,0,0,0,0
01795,Minh Khai,04,Cao Bằng,NO,Minh Khai,Cao Bằng,Minh Khai,Cao Bằng,22.475889,106.174805,4600,26.52825836,173.4,0,57,0,0,0,0,0,0,0,0,0,0,0,0
01747,Minh Tâm,04,Cao Bằng,NO,Minh Tâm,Cao Bằng,Minh Tâm,Cao Bằng,22.698502,106.071459,8483,79.548012,106.64,0,106,0,0,0,0,0,0,0,0,0,0,0,0
01297,Nam Quang,04,Cao Bằng,NO,Nam Quang,Cao Bằng,Nam Quang,Cao Bằng,22.916984,105.419755,1051,7.093682505,148.16,0,13,0,0,0,0,0,0,0,0,0,0,0,0
01660,Nam Tuấn,04,Cao Bằng,NO,Nam Tuấn,Cao Bằng,Nam Tuấn,Cao Bằng,22.801367,106.108762,1691,14.1317065,119.66,0,21,0,0,0,0,0,0,0,0,0,0,0,0
01726,Nguyên Bình,04,Cao Bằng,NO,Nguyên Bình,Cao Bằng,Nguyên Bình,Cao Bằng,22.671446,105.982672,9619,96.45041612,99.73,0,120,0,0,0,0,0,0,0,0,0,0,0,0
01699,Nguyễn Huệ,04,Cao Bằng,NO,Nguyễn Huệ,Cao Bằng,Nguyễn Huệ,Cao Bằng,22.686358,106.305976,9693,66.02861035,146.8,0,121,0,0,0,0,0,0,0,0,0,0,0,0
01279,Nùng Trí Cao,04,Cao Bằng,NO,Nùng Trí Cao,Cao Bằng,Nùng Trí Cao,Cao Bằng,22.687401,106.249074,20224,690.0034118,29.31,0,252,0,0,0,0,0,0,0,0,0,0,0,0
01768,Phan Thanh,04,Cao Bằng,NO,Phan Thanh,Cao Bằng,Phan Thanh,Cao Bằng,22.608029,105.80987,6891,49.90223767,138.09,0,86,0,0,0,0,0,0,0,0,0,0,0,0
01648,Phục Hòa,04,Cao Bằng,NO,Phục Hòa,Cao Bằng,Phục Hòa,Cao Bằng,22.521389,106.537673,14866,121.1572942,122.7,0,185,0,0,0,0,0,0,0,0,0,0,0,0
01456,Quang Hán,04,Cao Bằng,NO,Quang Hán,Cao Bằng,Quang Hán,Cao Bằng,22.83377,106.264816,7172,76.61574618,93.61,0,89,0,0,0,0,0,0,0,0,0,0,0,0
01304,Quảng Lâm,04,Cao Bằng,NO,Quảng Lâm_01304,Cao Bằng,Quảng Lâm_01304,Cao Bằng,22.855423,105.365572,10389,60.07633146,172.93,0,129,0,0,0,0,0,0,0,0,0,0,0,0
01552,Quang Long,04,Cao Bằng,NO,Quang Long,Cao Bằng,Quang Long,Cao Bằng,22.737569,106.684344,5980,45.94698425,130.15,0,74,0,0,0,0,0,0,0,0,0,0,0,0
01465,Quang Trung,04,Cao Bằng,NO,Quang Trung_01465,Cao Bằng,Quang Trung_01465,Cao Bằng,22.834483,106.393316,6194,74.98789346,82.6,0,77,0,0,0,0,0,0,0,0,0,0,0,0
01576,Quảng Uyên,04,Cao Bằng,NO,Quảng Uyên,Cao Bằng,Quảng Uyên,Cao Bằng,22.716454,106.407187,17303,135.1269036,128.05,0,216,0,0,0,0,0,0,0,0,0,0,0,0
01360,Sơn Lộ,04,Cao Bằng,NO,Sơn Lộ,Cao Bằng,Sơn Lộ,Cao Bằng,22.729368,105.662417,5783,59.38591086,97.38,0,72,0,0,0,0,0,0,0,0,0,0,0,0
01774,Tam Kim,04,Cao Bằng,NO,Tam Kim,Cao Bằng,Tam Kim,Cao Bằng,22.587501,106.024746,6079,37.56875348,161.81,0,75,0,0,0,0,0,0,0,0,0,0,0,0
01288,Tân Giang,04,Cao Bằng,NO,Tân Giang,Cao Bằng,Tân Giang,Cao Bằng,22.618148,106.26896,18873,223.9852836,84.26,0,235,0,0,0,0,0,0,0,0,0,0,0,0
01807,Thạch An,04,Cao Bằng,NO,Thạch An,Cao Bằng,Thạch An,Cao Bằng,22.488993,106.409238,7868,69.17531212,113.74,0,98,0,0,0,0,0,0,0,0,0,0,0,0
01777,Thành Công,04,Cao Bằng,NO,Thành Công_01777,Cao Bằng,Thành Công_01777,Cao Bằng,22.567611,105.877356,29321,208.4974756,140.63,0,366,0,0,0,0,0,0,0,0,0,0,0,0
01387,Thanh Long,04,Cao Bằng,NO,Thanh Long,Cao Bằng,Thanh Long,Cao Bằng,22.763035,105.942956,6746,56.87067948,118.62,0,84,0,0,0,0,0,0,0,0,0,0,0,0
01363,Thông Nông,04,Cao Bằng,NO,Thông Nông,Cao Bằng,Thông Nông,Cao Bằng,22.78863,106.001199,9806,103.9983031,94.29,0,122,0,0,0,0,0,0,0,0,0,0,0,0
01273,Thục Phán,04,Cao Bằng,NO,Thục Phán,Cao Bằng,Thục Phán,Cao Bằng,22.67726,106.187063,42671,769.6789322,55.44,0,533,0,0,0,0,0,0,0,0,0,0,0,0
01729,Tĩnh Túc,04,Cao Bằng,NO,Tĩnh Túc,Cao Bằng,Tĩnh Túc,Cao Bằng,22.696,105.892308,606,6.982371241,86.79,0,7,0,0,0,0,0,0,0,0,0,0,0,0
01414,Tổng Cọt,04,Cao Bằng,NO,Tổng Cọt,Cao Bằng,Tổng Cọt,Cao Bằng,22.940781,106.181979,7106,70.7205414,100.48,0,88,0,0,0,0,0,0,0,0,0,0,0,0
01447,Trà Lĩnh,04,Cao Bằng,NO,Trà Lĩnh,Cao Bằng,Trà Lĩnh,Cao Bằng,22.7866,106.329105,11202,149.4197679,74.97,0,140,0,0,0,0,0,0,0,0,0,0,0,0
01477,Trùng Khánh,04,Cao Bằng,NO,Trùng Khánh,Cao Bằng,Trùng Khánh,Cao Bằng,22.838832,106.502492,18505,147.4501992,125.5,0,231,0,0,0,0,0,0,0,0,0,0,0,0
01392,Trường Hà,04,Cao Bằng,NO,Trường Hà,Cao Bằng,Trường Hà,Cao Bằng,22.909177,106.021587,13204,92.14235869,143.3,0,165,0,0,0,0,0,0,0,0,0,0,0,0
01561,Vinh Quý,04,Cao Bằng,NO,Vinh Quý,Cao Bằng,Vinh Quý,Cao Bằng,22.674939,106.618361,717,5.012233485,143.05,0,8,0,0,0,0,0,0,0,0,0,0,0,0
01339,Xuân Trường,04,Cao Bằng,NO,Xuân Trường_01339,Cao Bằng,Xuân Trường_01339,Cao Bằng,22.89349,105.816761,5877,47.81158477,122.92,0,73,0,0,0,0,0,0,0,0,0,0,0,0
01318,Yên Thổ,04,Cao Bằng,NO,Yên Thổ,Cao Bằng,Yên Thổ,Cao Bằng,22.712024,105.530855,1328,7.920319676,167.67,0,16,0,0,0,0,0,0,0,0,0,0,0,0
02512,An Tường,08,Tuyên Quang,NO,An Tường,Tuyên Quang,An Tường,Tuyên Quang,21.775181,105.239525,44532,833.3083832,53.44,0,556,0,0,0,0,0,0,0,0,0,0,0,0
00991,Bắc Mê,08,Tuyên Quang,NO,Bắc Mê,Tuyên Quang,Bắc Mê,Tuyên Quang,22.764669,105.379389,13522,87.63447829,154.3,0,169,0,0,0,0,0,0,0,0,0,0,0,0
01153,Bắc Quang,08,Tuyên Quang,NO,Bắc Quang,Tuyên Quang,Bắc Quang,Tuyên Quang,22.417047,104.829593,34882,245.7690411,141.93,0,436,0,0,0,0,0,0,0,0,0,0,0,0
00832,Bạch Đích,08,Tuyên Quang,NO,Bạch Đích,Tuyên Quang,Bạch Đích,Tuyên Quang,23.200497,105.015592,13216,138.8672901,95.17,0,165,0,0,0,0,0,0,0,0,0,0,0,0
00976,Bạch Ngọc,08,Tuyên Quang,NO,Bạch Ngọc_00976,Tuyên Quang,Bạch Ngọc_00976,Tuyên Quang,22.581679,105.06163,30089,416.7451524,72.2,0,376,0,0,0,0,0,0,0,0,0,0,0,0
02380,Bạch Xa,08,Tuyên Quang,NO,Bạch Xa,Tuyên Quang,Bạch Xa,Tuyên Quang,22.26445,104.955292,15872,124.5742092,127.41,0,198,0,0,0,0,0,0,0,0,0,0,0,0
01024,Bản Máy,08,Tuyên Quang,NO,Bản Máy,Tuyên Quang,Bản Máy,Tuyên Quang,22.798952,104.593201,10152,133.2808192,76.17,0,126,0,0,0,0,0,0,0,0,0,0,0,0
01180,Bằng Hành,08,Tuyên Quang,NO,Bằng Hành,Tuyên Quang,Bằng Hành,Tuyên Quang,22.400555,104.941511,1716,11.31030846,151.72,0,21,0,0,0,0,0,0,0,0,0,0,0,0
01246,Bằng Lang,08,Tuyên Quang,NO,Bằng Lang,Tuyên Quang,Bằng Lang,Tuyên Quang,22.362589,104.664292,12614,109.061041,115.66,0,157,0,0,0,0,0,0,0,0,0,0,0,0
02296,Bình An,08,Tuyên Quang,NO,Bình An_02296,Tuyên Quang,Bình An_02296,Tuyên Quang,22.408814,105.191506,61663,839.7521449,73.43,0,770,0,0,0,0,0,0,0,0,0,0,0,0
02548,Bình Ca,08,Tuyên Quang,NO,Bình Ca,Tuyên Quang,Bình Ca,Tuyên Quang,21.725768,105.3081,25234,363.18365,69.48,0,315,0,0,0,0,0,0,0,0,0,0,0,0
02524,Bình Thuận,08,Tuyên Quang,NO,Bình Thuận_02524,Tuyên Quang,Bình Thuận_02524,Tuyên Quang,21.721472,105.224133,49619,1098.737821,45.16,0,620,0,0,0,0,0,0,0,0,0,0,0,0
02404,Bình Xa,08,Tuyên Quang,NO,Bình Xa,Tuyên Quang,Bình Xa,Tuyên Quang,22.105723,105.125516,18660,204.6725897,91.17,0,233,0,0,0,0,0,0,0,0,0,0,0,0
00883,Cán Tỷ,08,Tuyên Quang,NO,Cán Tỷ,Tuyên Quang,Cán Tỷ,Tuyên Quang,23.127152,105.006381,10185,119.6405497,85.13,0,127,0,0,0,0,0,0,0,0,0,0,0,0
00952,Cao Bồ,08,Tuyên Quang,NO,Cao Bồ,Tuyên Quang,Cao Bồ,Tuyên Quang,22.752703,104.882452,4365,39.26065839,111.18,0,54,0,0,0,0,0,0,0,0,0,0,0,0
02287,Chiêm Hoá,08,Tuyên Quang,NO,Chiêm Hoá,Tuyên Quang,Chiêm Hoá,Tuyên Quang,22.145148,105.28725,0,0,111.27,0,0,0,0,0,0,0,0,0,0,0,0,0,0
02245,Côn Lôn,08,Tuyên Quang,NO,Côn Lôn,Tuyên Quang,Côn Lôn,Tuyên Quang,22.54757,105.421067,5945,36.98059219,160.76,0,74,0,0,0,0,0,0,0,0,0,0,0,0
01165,Đồng Tâm,08,Tuyên Quang,NO,Đồng Tâm_01165,Tuyên Quang,Đồng Tâm_01165,Tuyên Quang,22.503265,104.983589,36882,148.2395498,248.8,0,461,0,0,0,0,0,0,0,0,0,0,0,0
02572,Đông Thọ,08,Tuyên Quang,NO,Đông Thọ,Tuyên Quang,Đông Thọ,Tuyên Quang,21.651036,105.284343,18750,250.4675394,74.86,0,234,0,0,0,0,0,0,0,0,0,0,0,0
00721,Đồng Văn,08,Tuyên Quang,NO,Đồng Văn_00721,Tuyên Quang,Đồng Văn_00721,Tuyên Quang,23.256895,105.342508,26972,220.1975671,122.49,0,337,0,0,0,0,0,0,0,0,0,0,0,0
01216,Đồng Yên,08,Tuyên Quang,NO,Đồng Yên,Tuyên Quang,Đồng Yên,Tuyên Quang,22.223576,104.79328,19000,239.4153226,79.36,0,237,0,0,0,0,0,0,0,0,0,0,0,0
00871,Du Già,08,Tuyên Quang,NO,Du Già,Tuyên Quang,Du Già,Tuyên Quang,22.923306,105.246096,16411,129.2815503,126.94,0,205,0,0,0,0,0,0,0,0,0,0,0,0
01012,Đường Hồng,08,Tuyên Quang,NO,Đường Hồng,Tuyên Quang,Đường Hồng,Tuyên Quang,22.680185,105.468107,12073,89.15226702,135.42,0,150,0,0,0,0,0,0,0,0,0,0,0,0
00865,Đường Thượng,08,Tuyên Quang,NO,Đường Thượng,Tuyên Quang,Đường Thượng,Tuyên Quang,22.98557,105.207306,14905,144.3583535,103.25,0,186,0,0,0,0,0,0,0,0,0,0,0,0
00985,Giáp Trung,08,Tuyên Quang,NO,Giáp Trung,Tuyên Quang,Giáp Trung,Tuyên Quang,22.803988,105.291036,644,8.796612485,73.21,0,8,0,0,0,0,0,0,0,0,0,0,0,0
00694,Hà Giang 1,08,Tuyên Quang,NO,Hà Giang 1,Tuyên Quang,Hà Giang 1,Tuyên Quang,22.80748,104.921969,22448,271.471762,82.69,0,280,0,0,0,0,0,0,0,0,0,0,0,0
00691,Hà Giang 2,08,Tuyên Quang,NO,Hà Giang 2,Tuyên Quang,Hà Giang 2,Tuyên Quang,22.857953,104.973826,343,5.658198614,60.62,0,4,0,0,0,0,0,0,0,0,0,0,0,0
02374,Hàm Yên,08,Tuyên Quang,NO,Hàm Yên,Tuyên Quang,Hàm Yên,Tuyên Quang,22.033998,105.023702,30593,242.4360092,126.19,0,382,0,0,0,0,0,0,0,0,0,0,0,0
01084,Hồ Thầu,08,Tuyên Quang,NO,Hồ Thầu,Tuyên Quang,Hồ Thầu,Tuyên Quang,22.602949,104.655131,9029,65.98699116,136.83,0,112,0,0,0,0,0,0,0,0,0,0,0,0
02353,Hòa An,08,Tuyên Quang,NO,Hòa An_02353,Tuyên Quang,Hòa An_02353,Tuyên Quang,22.091407,105.245971,34149,554.1869523,61.62,0,426,0,0,0,0,0,0,0,0,0,0,0,0
01021,Hoàng Su Phì,08,Tuyên Quang,NO,Hoàng Su Phì,Tuyên Quang,Hoàng Su Phì,Tuyên Quang,22.730618,104.671441,16220,187.1898442,86.65,0,202,0,0,0,0,0,0,0,0,0,0,0,0
02608,Hồng Sơn,08,Tuyên Quang,NO,Hồng Sơn_02608,Tuyên Quang,Hồng Sơn_02608,Tuyên Quang,21.588774,105.281937,30974,163.8749273,189.01,0,387,0,0,0,0,0,0,0,0,0,0,0,0
02260,Hồng Thái,08,Tuyên Quang,NO,Hồng Thái_02260,Tuyên Quang,Hồng Thái_02260,Tuyên Quang,22.422928,105.503485,25970,255.5096419,101.64,0,324,0,0,0,0,0,0,0,0,0,0,0,0
01201,Hùng An,08,Tuyên Quang,NO,Hùng An,Tuyên Quang,Hùng An,Tuyên Quang,22.331969,104.840491,17857,150.6030193,118.57,0,223,0,0,0,0,0,0,0,0,0,0,0,0
02425,Hùng Đức,08,Tuyên Quang,NO,Hùng Đức,Tuyên Quang,Hùng Đức,Tuyên Quang,21.890086,105.064863,10749,168.9297501,63.63,0,134,0,0,0,0,0,0,0,0,0,0,0,0
02455,Hùng Lợi,08,Tuyên Quang,NO,Hùng Lợi,Tuyên Quang,Hùng Lợi,Tuyên Quang,21.928006,105.483627,11282,66.7850589,168.93,0,141,0,0,0,0,0,0,0,0,0,0,0,0
00802,Khâu Vai,08,Tuyên Quang,NO,Khâu Vai,Tuyên Quang,Khâu Vai,Tuyên Quang,23.111976,105.491203,23592,219.5421552,107.46,0,294,0,0,0,0,0,0,0,0,0,0,0,0
01147,Khuôn Lùng,08,Tuyên Quang,NO,Khuôn Lùng,Tuyên Quang,Khuôn Lùng,Tuyên Quang,22.51924,104.51129,831,6.908879282,120.28,0,10,0,0,0,0,0,0,0,0,0,0,0,0
02332,Kiên Đài,08,Tuyên Quang,NO,Kiên Đài,Tuyên Quang,Kiên Đài,Tuyên Quang,22.132084,105.414122,9695,74.10946338,130.82,0,121,0,0,0,0,0,0,0,0,0,0,0,0
02437,Kiến Thiết,08,Tuyên Quang,NO,Kiến Thiết,Tuyên Quang,Kiến Thiết,Tuyên Quang,21.971789,105.337189,7032,64.23090976,109.48,0,87,0,0,0,0,0,0,0,0,0,0,0,0
02350,Kim Bình,08,Tuyên Quang,NO,Kim Bình,Tuyên Quang,Kim Bình,Tuyên Quang,22.07711,105.312375,17493,189.9554783,92.09,0,218,0,0,0,0,0,0,0,0,0,0,0,0
02266,Lâm Bình,08,Tuyên Quang,NO,Lâm Bình,Tuyên Quang,Lâm Bình,Tuyên Quang,22.546926,105.185905,12855,39.23393865,327.65,0,160,0,0,0,0,0,0,0,0,0,0,0,0
00937,Lao Chải,08,Tuyên Quang,NO,Lao Chải_00937,Tuyên Quang,Lao Chải_00937,Tuyên Quang,22.854501,104.781031,10507,66.50420913,157.99,0,131,0,0,0,0,0,0,0,0,0,0,0,0
01192,Liên Hiệp,08,Tuyên Quang,NO,Liên Hiệp,Tuyên Quang,Liên Hiệp,Tuyên Quang,22.378768,105.026617,10954,65.72268555,166.67,0,136,0,0,0,0,0,0,0,0,0,0,0,0
00970,Linh Hồ,08,Tuyên Quang,NO,Linh Hồ,Tuyên Quang,Linh Hồ,Tuyên Quang,22.630654,105.005959,22524,124.1402116,181.44,0,281,0,0,0,0,0,0,0,0,0,0,0,0
02434,Lực Hành,08,Tuyên Quang,NO,Lực Hành,Tuyên Quang,Lực Hành,Tuyên Quang,22.009552,105.192429,11427,129.8965556,87.97,0,142,0,0,0,0,0,0,0,0,0,0,0,0
00715,Lũng Cú,08,Tuyên Quang,NO,Lũng Cú,Tuyên Quang,Lũng Cú,Tuyên Quang,23.32631,105.310819,15671,164.6113445,95.2,0,195,0,0,0,0,0,0,0,0,0,0,0,0
00763,Lũng Phìn,08,Tuyên Quang,NO,Lũng Phìn,Tuyên Quang,Lũng Phìn,Tuyên Quang,23.140344,105.261656,17082,245.9257126,69.46,0,213,0,0,0,0,0,0,0,0,0,0,0,0
00901,Lùng Tám,08,Tuyên Quang,NO,Lùng Tám,Tuyên Quang,Lùng Tám,Tuyên Quang,23.013182,105.079658,11374,91.62236185,124.14,0,142,0,0,0,0,0,0,0,0,0,0,0,0
00847,Mậu Duệ,08,Tuyên Quang,NO,Mậu Duệ,Tuyên Quang,Mậu Duệ,Tuyên Quang,23.060411,105.234326,19704,120.653971,163.31,0,246,0,0,0,0,0,0,0,0,0,0,0,0
00769,Mèo Vạc,08,Tuyên Quang,NO,Mèo Vạc,Tuyên Quang,Mèo Vạc,Tuyên Quang,23.180819,105.410193,20399,221.2232947,92.21,0,254,0,0,0,0,0,0,0,0,0,0,0,0
00994,Minh Ngọc,08,Tuyên Quang,NO,Minh Ngọc,Tuyên Quang,Minh Ngọc,Tuyên Quang,22.723493,105.1919,8167,51.25517761,159.34,0,102,0,0,0,0,0,0,0,0,0,0,0,0
02302,Minh Quang,08,Tuyên Quang,NO,Minh Quang,Tuyên Quang,Minh Quang,Tuyên Quang,22.357895,105.127021,20862,109.0310442,191.34,0,260,0,0,0,0,0,0,0,0,0,0,0,0
00982,Minh Sơn,08,Tuyên Quang,NO,Minh Sơn_00982,Tuyên Quang,Minh Sơn_00982,Tuyên Quang,22.848103,105.208036,30469,372.6183197,81.77,0,380,0,0,0,0,0,0,0,0,0,0,0,0
00919,Minh Tân,08,Tuyên Quang,NO,Minh Tân_00919,Tuyên Quang,Minh Tân_00919,Tuyên Quang,22.969581,104.91298,7760,73.4153264,105.7,0,97,0,0,0,0,0,0,0,0,0,0,0,0
02554,Minh Thanh,08,Tuyên Quang,NO,Minh Thanh,Tuyên Quang,Minh Thanh,Tuyên Quang,21.760125,105.401438,13948,177.5232277,78.57,0,174,0,0,0,0,0,0,0,0,0,0,0,0
02215,Minh Xuân,08,Tuyên Quang,NO,Minh Xuân,Tuyên Quang,Minh Xuân,Tuyên Quang,21.828902,105.190824,74,2.12034384,34.9,0,0,0,0,0,0,0,0,0,0,0,0,0,0
02509,Mỹ Lâm,08,Tuyên Quang,NO,Mỹ Lâm,Tuyên Quang,Mỹ Lâm,Tuyên Quang,21.764478,105.125357,32603,406.521197,80.2,0,407,0,0,0,0,0,0,0,0,0,0,0,0
02221,Nà Hang,08,Tuyên Quang,NO,Nà Hang,Tuyên Quang,Nà Hang,Tuyên Quang,22.346464,105.357477,18003,70.17892644,256.53,0,225,0,0,0,0,0,0,0,0,0,0,0,0
01141,Nấm Dẩn,08,Tuyên Quang,NO,Nấm Dẩn,Tuyên Quang,Nấm Dẩn,Tuyên Quang,22.63147,104.520647,12367,143.6186273,86.11,0,154,0,0,0,0,0,0,0,0,0,0,0,0
01075,Nậm Dịch,08,Tuyên Quang,NO,Nậm Dịch,Tuyên Quang,Nậm Dịch,Tuyên Quang,22.628624,104.758327,885,9.050930661,97.78,0,11,0,0,0,0,0,0,0,0,0,0,0,0
00889,Nghĩa Thuận,08,Tuyên Quang,NO,Nghĩa Thuận,Tuyên Quang,Nghĩa Thuận,Tuyên Quang,23.128547,104.924143,102,1.273090364,80.12,0,1,0,0,0,0,0,0,0,0,0,0,0,0
00700,Ngọc Đường,08,Tuyên Quang,NO,Ngọc Đường,Tuyên Quang,Ngọc Đường,Tuyên Quang,22.809928,105.114111,8147,83.07331498,98.07,0,101,0,0,0,0,0,0,0,0,0,0,0,0
00859,Ngọc Long,08,Tuyên Quang,NO,Ngọc Long,Tuyên Quang,Ngọc Long,Tuyên Quang,22.991101,105.325554,10356,122.9052931,84.26,0,129,0,0,0,0,0,0,0,0,0,0,0,0
02530,Nhữ Khê,08,Tuyên Quang,NO,Nhữ Khê,Tuyên Quang,Nhữ Khê,Tuyên Quang,21.701238,105.174399,22601,382.8082656,59.04,0,282,0,0,0,0,0,0,0,0,0,0,0,0
00817,Niêm Sơn,08,Tuyên Quang,NO,Niêm Sơn,Tuyên Quang,Niêm Sơn,Tuyên Quang,23.028843,105.434606,12705,155.4508748,81.73,0,158,0,0,0,0,0,0,0,0,0,0,0,0
02212,Nông Tiến,08,Tuyên Quang,NO,Nông Tiến,Tuyên Quang,Nông Tiến,Tuyên Quang,21.833305,105.231879,15959,591.2930715,26.99,0,199,0,0,0,0,0,0,0,0,0,0,0,0
01096,Pà Vầy Sủ,08,Tuyên Quang,NO,Pà Vầy Sủ,Tuyên Quang,Pà Vầy Sủ,Tuyên Quang,22.668049,104.43669,16387,196.7226891,83.3,0,204,0,0,0,0,0,0,0,0,0,0,0,0
00745,Phố Bảng,08,Tuyên Quang,NO,Phố Bảng,Tuyên Quang,Phố Bảng,Tuyên Quang,23.223031,105.169538,16166,208.0298546,77.71,0,202,0,0,0,0,0,0,0,0,0,0,0,0
00706,Phú Linh,08,Tuyên Quang,NO,Phú Linh,Tuyên Quang,Phú Linh,Tuyên Quang,22.750435,105.06741,1272,11.31974726,112.37,0,15,0,0,0,0,0,0,0,0,0,0,0,0
02611,Phú Lương,08,Tuyên Quang,NO,Phú Lương_02611,Tuyên Quang,Phú Lương_02611,Tuyên Quang,21.545265,105.395067,45530,405.1072159,112.39,0,569,0,0,0,0,0,0,0,0,0,0,0,0
02392,Phù Lưu,08,Tuyên Quang,NO,Phù Lưu,Tuyên Quang,Phù Lưu,Tuyên Quang,22.180364,105.030809,16748,139.045247,120.45,0,209,0,0,0,0,0,0,0,0,0,0,0,0
01057,Pờ Ly Ngài,08,Tuyên Quang,NO,Pờ Ly Ngài,Tuyên Quang,Pờ Ly Ngài,Tuyên Quang,22.704655,104.627916,6468,131.0903932,49.34,0,80,0,0,0,0,0,0,0,0,0,0,0,0
00874,Quản Bạ,08,Tuyên Quang,NO,Quản Bạ,Tuyên Quang,Quản Bạ,Tuyên Quang,23.012263,104.97892,19114,185.8073296,102.87,0,238,0,0,0,0,0,0,0,0,0,0,0,0
01237,Quang Bình,08,Tuyên Quang,NO,Quang Bình,Tuyên Quang,Quang Bình,Tuyên Quang,22.4477,104.578259,11026,84.72414323,130.14,0,137,0,0,0,0,0,0,0,0,0,0,0,0
01144,Quảng Nguyên,08,Tuyên Quang,NO,Quảng Nguyên,Tuyên Quang,Quảng Nguyên,Tuyên Quang,22.589458,104.569944,6167,61.99236027,99.48,0,77,0,0,0,0,0,0,0,0,0,0,0,0
00733,Sà Phìn,08,Tuyên Quang,NO,Sà Phìn,Tuyên Quang,Sà Phìn,Tuyên Quang,23.22373,105.24639,17434,208.7904192,83.5,0,217,0,0,0,0,0,0,0,0,0,0,0,0
02536,Sơn Dương,08,Tuyên Quang,NO,Sơn Dương,Tuyên Quang,Sơn Dương,Tuyên Quang,21.688938,105.416162,43497,353.1460583,123.17,0,543,0,0,0,0,0,0,0,0,0,0,0,0
02620,Sơn Thủy,08,Tuyên Quang,NO,Sơn Thủy_02620,Tuyên Quang,Sơn Thủy_02620,Tuyên Quang,21.568299,105.493016,13123,137.0262086,95.77,0,164,0,0,0,0,0,0,0,0,0,0,0,0
00778,Sơn Vĩ,08,Tuyên Quang,NO,Sơn Vĩ,Tuyên Quang,Sơn Vĩ,Tuyên Quang,23.211583,105.475342,20710,187.2175014,110.62,0,258,0,0,0,0,0,0,0,0,0,0,0,0
00787,Sủng Máng,08,Tuyên Quang,NO,Sủng Máng,Tuyên Quang,Sủng Máng,Tuyên Quang,23.157176,105.33976,13030,171.109652,76.15,0,162,0,0,0,0,0,0,0,0,0,0,0,0
02320,Tân An,08,Tuyên Quang,NO,Tân An_02320,Tuyên Quang,Tân An_02320,Tuyên Quang,22.22624,105.136469,43464,1070.278257,40.61,0,543,0,0,0,0,0,0,0,0,0,0,0,0
02470,Tân Long,08,Tuyên Quang,NO,Tân Long_02470,Tuyên Quang,Tân Long_02470,Tuyên Quang,21.893066,105.264153,36798,360.3407756,102.12,0,459,0,0,0,0,0,0,0,0,0,0,0,0
02308,Tân Mỹ,08,Tuyên Quang,NO,Tân Mỹ_02308,Tuyên Quang,Tân Mỹ_02308,Tuyên Quang,22.264668,105.197844,25550,249.0981769,102.57,0,319,0,0,0,0,0,0,0,0,0,0,0,0
01171,Tân Quang,08,Tuyên Quang,NO,Tân Quang,Tuyên Quang,Tân Quang,Tuyên Quang,22.544598,104.857661,12882,73.97496267,174.14,0,161,0,0,0,0,0,0,0,0,0,0,0,0
02578,Tân Thanh,08,Tuyên Quang,NO,Tân Thanh_02578,Tuyên Quang,Tân Thanh_02578,Tuyên Quang,21.626557,105.445328,18782,164.0349345,114.5,0,234,0,0,0,0,0,0,0,0,0,0,0,0
01051,Tân Tiến,08,Tuyên Quang,NO,Tân Tiến_01051,Tuyên Quang,Tân Tiến_01051,Tuyên Quang,22.746508,104.75671,35245,170.1013514,207.2,0,440,0,0,0,0,0,0,0,0,0,0,0,0
02545,Tân Trào,08,Tuyên Quang,NO,Tân Trào,Tuyên Quang,Tân Trào,Tuyên Quang,21.818059,105.454767,15459,156.8327077,98.57,0,193,0,0,0,0,0,0,0,0,0,0,0,0
01243,Tân Trịnh,08,Tuyên Quang,NO,Tân Trịnh,Tuyên Quang,Tân Trịnh,Tuyên Quang,22.425701,104.709498,1117,9.734204793,114.75,0,13,0,0,0,0,0,0,0,0,0,0,0,0
00808,Tát Ngà,08,Tuyên Quang,NO,Tát Ngà,Tuyên Quang,Tát Ngà,Tuyên Quang,23.089781,105.381791,8050,88.85209713,90.6,0,100,0,0,0,0,0,0,0,0,0,0,0,0
02494,Thái Bình,08,Tuyên Quang,NO,Thái Bình_02494,Tuyên Quang,Thái Bình_02494,Tuyên Quang,21.800234,105.302943,8653,28.34725635,305.25,0,108,0,0,0,0,0,0,0,0,0,0,0,0
02419,Thái Hòa,08,Tuyên Quang,NO,Thái Hòa_02419,Tuyên Quang,Thái Hòa_02419,Tuyên Quang,21.967486,105.115531,24824,856,29,0,310,0,0,0,0,0,0,0,0,0,0,0,0
02407,Thái Sơn,08,Tuyên Quang,NO,Thái Sơn,Tuyên Quang,Thái Sơn,Tuyên Quang,21.994699,105.070517,16987,181.6014539,93.54,0,212,0,0,0,0,0,0,0,0,0,0,0,0
00829,Thắng Mố,08,Tuyên Quang,NO,Thắng Mố,Tuyên Quang,Thắng Mố,Tuyên Quang,23.191671,105.111842,0,0,67.68,0,0,0,0,0,0,0,0,0,0,0,0,0,0
01033,Thàng Tín,08,Tuyên Quang,NO,Thàng Tín,Tuyên Quang,Thàng Tín,Tuyên Quang,22.7979,104.683731,7919,111.8818875,70.78,0,98,0,0,0,0,0,0,0,0,0,0,0,0
00928,Thanh Thuỷ,08,Tuyên Quang,NO,Thanh Thuỷ,Tuyên Quang,Thanh Thuỷ,Tuyên Quang,22.874459,104.882408,0,0,101.71,0,0,0,0,0,0,0,0,0,0,0,0,0,0
01090,Thông Nguyên,08,Tuyên Quang,NO,Thông Nguyên,Tuyên Quang,Thông Nguyên,Tuyên Quang,22.527289,104.748972,6485,59.65961362,108.7,0,81,0,0,0,0,0,0,0,0,0,0,0,0
00922,Thuận Hòa,08,Tuyên Quang,NO,Thuận Hòa_00922,Tuyên Quang,Thuận Hòa_00922,Tuyên Quang,22.932677,105.015778,30944,674.7492368,45.86,0,386,0,0,0,0,0,0,0,0,0,0,0,0
02269,Thượng Lâm,08,Tuyên Quang,NO,Thượng Lâm,Tuyên Quang,Thượng Lâm,Tuyên Quang,22.526921,105.312391,10249,36.9786405,277.16,0,128,0,0,0,0,0,0,0,0,0,0,0,0
02239,Thượng Nông,08,Tuyên Quang,NO,Thượng Nông,Tuyên Quang,Thượng Nông,Tuyên Quang,22.58444,105.487332,7469,93.5613178,79.83,0,93,0,0,0,0,0,0,0,0,0,0,0,0
00958,Thượng Sơn,08,Tuyên Quang,NO,Thượng Sơn,Tuyên Quang,Thượng Sơn,Tuyên Quang,22.664776,104.82733,6370,44.67040673,142.6,0,79,0,0,0,0,0,0,0,0,0,0,0,0
01225,Tiên Nguyên,08,Tuyên Quang,NO,Tiên Nguyên,Tuyên Quang,Tiên Nguyên,Tuyên Quang,22.489336,104.688477,5211,57.8164873,90.13,0,65,0,0,0,0,0,0,0,0,0,0,0,0
01261,Tiên Yên,08,Tuyên Quang,NO,Tiên Yên_01261,Tuyên Quang,Tiên Yên_01261,Tuyên Quang,22.28126,104.720006,14765,151.9345544,97.18,0,184,0,0,0,0,0,0,0,0,0,0,0,0
02359,Tri Phú,08,Tuyên Quang,NO,Tri Phú,Tuyên Quang,Tri Phú,Tuyên Quang,22.023811,105.418816,9005,52.88969811,170.26,0,112,0,0,0,0,0,0,0,0,0,0,0,0
02305,Trung Hà,08,Tuyên Quang,NO,Trung Hà,Tuyên Quang,Trung Hà,Tuyên Quang,22.28962,105.089166,8608,83.42702074,103.18,0,107,0,0,0,0,0,0,0,0,0,0,0,0
02458,Trung Sơn,08,Tuyên Quang,NO,Trung Sơn_02458,Tuyên Quang,Trung Sơn_02458,Tuyên Quang,21.86756,105.37385,3373,43.91355292,76.81,0,42,0,0,0,0,0,0,0,0,0,0,0,0
01117,Trung Thịnh,08,Tuyên Quang,NO,Trung Thịnh,Tuyên Quang,Trung Thịnh,Tuyên Quang,22.688741,104.547814,12728,176.5081126,72.11,0,159,0,0,0,0,0,0,0,0,0,0,0,0
02623,Trường Sinh,08,Tuyên Quang,NO,Trường Sinh,Tuyên Quang,Trường Sinh,Tuyên Quang,21.562482,105.316022,18263,342.2601199,53.36,0,228,0,0,0,0,0,0,0,0,0,0,0,0
00925,Tùng Bá,08,Tuyên Quang,NO,Tùng Bá,Tuyên Quang,Tùng Bá,Tuyên Quang,22.89707,105.09916,8527,70.76935845,120.49,0,106,0,0,0,0,0,0,0,0,0,0,0,0
00892,Tùng Vài,08,Tuyên Quang,NO,Tùng Vài,Tuyên Quang,Tùng Vài,Tuyên Quang,23.052929,104.878833,11633,77.56367516,149.98,0,145,0,0,0,0,0,0,0,0,0,0,0,0
00913,Vị Xuyên,08,Tuyên Quang,NO,Vị Xuyên,Tuyên Quang,Vị Xuyên,Tuyên Quang,22.685503,104.96806,24777,308.0183988,80.44,0,309,0,0,0,0,0,0,0,0,0,0,0,0
00967,Việt Lâm,08,Tuyên Quang,NO,Việt Lâm,Tuyên Quang,Việt Lâm,Tuyên Quang,22.660214,104.92173,6655,71.82171379,92.66,0,83,0,0,0,0,0,0,0,0,0,0,0,0
01156,Vĩnh Tuy,08,Tuyên Quang,NO,Vĩnh Tuy_01156,Tuyên Quang,Vĩnh Tuy_01156,Tuyên Quang,22.249711,104.876092,38215,329.8377352,115.86,0,477,0,0,0,0,0,0,0,0,0,0,0,0
01108,Xín Mần,08,Tuyên Quang,NO,Xín Mần,Tuyên Quang,Xín Mần,Tuyên Quang,22.747618,104.521238,20317,162.2245289,125.24,0,253,0,0,0,0,0,0,0,0,0,0,0,0
01255,Xuân Giang,08,Tuyên Quang,NO,Xuân Giang_01255,Tuyên Quang,Xuân Giang_01255,Tuyên Quang,22.297771,104.621827,9573,111.2363467,86.06,0,119,0,0,0,0,0,0,0,0,0,0,0,0
02449,Xuân Vân,08,Tuyên Quang,NO,Xuân Vân,Tuyên Quang,Xuân Vân,Tuyên Quang,21.947302,105.231863,1971,18.90647482,104.25,0,24,0,0,0,0,0,0,0,0,0,0,0,0
01006,Yên Cường,08,Tuyên Quang,NO,Yên Cường_01006,Tuyên Quang,Yên Cường_01006,Tuyên Quang,22.668796,105.364501,10099,86.39007699,116.9,0,126,0,0,0,0,0,0,0,0,0,0,0,0
02248,Yên Hoa,08,Tuyên Quang,NO,Yên Hoa,Tuyên Quang,Yên Hoa,Tuyên Quang,22.475908,105.458918,7592,52.7845373,143.83,0,94,0,0,0,0,0,0,0,0,0,0,0,0
02317,Yên Lập,08,Tuyên Quang,NO,Yên Lập_02317,Tuyên Quang,Yên Lập_02317,Tuyên Quang,22.209397,105.38195,30770,445.6191166,69.05,0,384,0,0,0,0,0,0,0,0,0,0,0,0
00820,Yên Minh,08,Tuyên Quang,NO,Yên Minh,Tuyên Quang,Yên Minh,Tuyên Quang,23.121446,105.133061,27533,177.9767292,154.7,0,344,0,0,0,0,0,0,0,0,0,0,0,0
02365,Yên Nguyên,08,Tuyên Quang,NO,Yên Nguyên,Tuyên Quang,Yên Nguyên,Tuyên Quang,22.098796,105.186856,16613,170.6347576,97.36,0,207,0,0,0,0,0,0,0,0,0,0,0,0
02398,Yên Phú,08,Tuyên Quang,NO,Yên Phú_02398,Tuyên Quang,Yên Phú_02398,Tuyên Quang,22.137408,104.931885,15514,364.0929359,42.61,0,193,0,0,0,0,0,0,0,0,0,0,0,0
02473,Yên Sơn,08,Tuyên Quang,NO,Yên Sơn_02473,Tuyên Quang,Yên Sơn_02473,Tuyên Quang,21.856444,105.132613,13078,112.1419997,116.62,0,163,0,0,0,0,0,0,0,0,0,0,0,0
01234,Yên Thành,08,Tuyên Quang,NO,Yên Thành_01234,Tuyên Quang,Yên Thành_01234,Tuyên Quang,22.431544,104.519984,4953,129.8977183,38.13,0,61,0,0,0,0,0,0,0,0,0,0,0,0
03301,Búng Lao,11,Điện Biên,NO,Búng Lao,Điện Biên,Búng Lao,Điện Biên,21.547095,103.288397,20380,139.732602,145.85,0,254,0,0,0,0,0,0,0,0,0,0,0,0
03175,Chà Tở,11,Điện Biên,NO,Chà Tở,Điện Biên,Chà Tở,Điện Biên,21.990482,102.93668,5399,23.68813619,227.92,0,67,0,0,0,0,0,0,0,0,0,0,0,0
03283,Chiềng Sinh,11,Điện Biên,NO,Chiềng Sinh_03283,Điện Biên,Chiềng Sinh_03283,Điện Biên,21.609196,103.336769,15936,73.09756433,218.01,0,199,0,0,0,0,0,0,0,0,0,0,0,0
03127,Điện Biên Phủ,11,Điện Biên,NO,Điện Biên Phủ,Điện Biên,Điện Biên Phủ,Điện Biên,21.414301,103.057693,51015,898.9427313,56.75,0,637,0,0,0,0,0,0,0,0,0,0,0,0
03256,Mường Ảng,11,Điện Biên,NO,Mường Ảng,Điện Biên,Mường Ảng,Điện Biên,21.488851,103.221881,18251,212.3690947,85.94,0,228,0,0,0,0,0,0,0,0,0,0,0,0
03166,Mường Chà,11,Điện Biên,NO,Mường Chà,Điện Biên,Mường Chà,Điện Biên,21.979288,102.777355,14394,31.13697326,462.28,0,179,0,0,0,0,0,0,0,0,0,0,0,0
03313,Mường Lạn,11,Điện Biên,NO,Mường Lạn_03313,Điện Biên,Mường Lạn_03313,Điện Biên,21.451482,103.317771,11302,42.66676734,264.89,0,141,0,0,0,0,0,0,0,0,0,0,0,0
03151,Mường Lay,11,Điện Biên,NO,Mường Lay,Điện Biên,Mường Lay,Điện Biên,22.016037,103.178295,18878,84.78778352,222.65,0,235,0,0,0,0,0,0,0,0,0,0,0,0
03214,Mường Luân,11,Điện Biên,NO,Mường Luân,Điện Biên,Mường Luân,Điện Biên,21.24656,103.378863,16601,89.14724519,186.22,0,207,0,0,0,0,0,0,0,0,0,0,0,0
03268,Mường Mùn,11,Điện Biên,NO,Mường Mùn,Điện Biên,Mường Mùn,Điện Biên,21.724842,103.318432,14902,58.9384591,252.84,0,186,0,0,0,0,0,0,0,0,0,0,0,0
03368,Mường Nhà,11,Điện Biên,NO,Mường Nhà,Điện Biên,Mường Nhà,Điện Biên,21.024129,103.171424,10008,21.61555076,463,0,125,0,0,0,0,0,0,0,0,0,0,0,0
03160,Mường Nhé,11,Điện Biên,NO,Mường Nhé,Điện Biên,Mường Nhé,Điện Biên,22.216892,102.420365,25188,51.45974217,489.47,0,314,0,0,0,0,0,0,0,0,0,0,0,0
03325,Mường Phăng,11,Điện Biên,NO,Mường Phăng,Điện Biên,Mường Phăng,Điện Biên,21.472691,103.104402,16654,99.9040192,166.7,0,208,0,0,0,0,0,0,0,0,0,0,0,0
03202,Mường Pồn,11,Điện Biên,NO,Mường Pồn,Điện Biên,Mường Pồn,Điện Biên,21.587031,103.029982,10783,41.67181945,258.76,0,134,0,0,0,0,0,0,0,0,0,0,0,0
03334,Mường Thanh,11,Điện Biên,NO,Mường Thanh,Điện Biên,Mường Thanh,Điện Biên,21.366076,103.034384,26456,959.9419448,27.56,0,330,0,0,0,0,0,0,0,0,0,0,0,0
03163,Mường Toong,11,Điện Biên,NO,Mường Toong,Điện Biên,Mường Toong,Điện Biên,22.183796,102.582108,11230,48.68004682,230.69,0,140,0,0,0,0,0,0,0,0,0,0,0,0
03181,Mường Tùng,11,Điện Biên,NO,Mường Tùng,Điện Biên,Mường Tùng,Điện Biên,21.952534,103.092678,979,3.509841179,278.93,0,12,0,0,0,0,0,0,0,0,0,0,0,0
03176,Nà Bủng,11,Điện Biên,NO,Nà Bủng,Điện Biên,Nà Bủng,Điện Biên,21.725914,102.716271,10486,64.52128969,162.52,0,131,0,0,0,0,0,0,0,0,0,0,0,0
03169,Nà Hỳ,11,Điện Biên,NO,Nà Hỳ,Điện Biên,Nà Hỳ,Điện Biên,21.834392,102.732876,1732,6.283558264,275.64,0,21,0,0,0,0,0,0,0,0,0,0,0,0
03172,Na Sang,11,Điện Biên,NO,Na Sang,Điện Biên,Na Sang,Điện Biên,21.775523,103.061417,20319,56.4181591,360.15,0,253,0,0,0,0,0,0,0,0,0,0,0,0
03203,Na Son,11,Điện Biên,NO,Na Son,Điện Biên,Na Son,Điện Biên,21.297176,103.214412,15895,68.89601664,230.71,0,198,0,0,0,0,0,0,0,0,0,0,0,0
03316,Nà Tấu,11,Điện Biên,NO,Nà Tấu,Điện Biên,Nà Tấu,Điện Biên,21.562422,103.144373,15488,82.14266773,188.55,0,193,0,0,0,0,0,0,0,0,0,0,0,0
03162,Nậm Kè,11,Điện Biên,NO,Nậm Kè,Điện Biên,Nậm Kè,Điện Biên,22.086783,102.594076,9307,41.41967067,224.7,0,116,0,0,0,0,0,0,0,0,0,0,0,0
03194,Nậm Nèn,11,Điện Biên,NO,Nậm Nèn,Điện Biên,Nậm Nèn,Điện Biên,21.804405,103.225811,7771,44.40571429,175,0,97,0,0,0,0,0,0,0,0,0,0,0,0
03358,Núa Ngam,11,Điện Biên,NO,Núa Ngam,Điện Biên,Núa Ngam,Điện Biên,21.179256,103.052558,12238,46.21950298,264.78,0,152,0,0,0,0,0,0,0,0,0,0,0,0
03193,Pa Ham,11,Điện Biên,NO,Pa Ham,Điện Biên,Pa Ham,Điện Biên,21.891328,103.22391,8471,62.36012956,135.84,0,105,0,0,0,0,0,0,0,0,0,0,0,0
03382,Phình Giàng,11,Điện Biên,NO,Phình Giàng,Điện Biên,Phình Giàng,Điện Biên,21.125192,103.224465,10852,47.93921456,226.37,0,135,0,0,0,0,0,0,0,0,0,0,0,0
03370,Pu Nhi,11,Điện Biên,NO,Pu Nhi,Điện Biên,Pu Nhi,Điện Biên,21.345691,103.134486,1035,5.711290145,181.22,0,12,0,0,0,0,0,0,0,0,0,0,0,0
03260,Pú Nhung,11,Điện Biên,NO,Pú Nhung,Điện Biên,Pú Nhung,Điện Biên,21.722493,103.490084,13008,61.96351165,209.93,0,162,0,0,0,0,0,0,0,0,0,0,0,0
03295,Quài Tở,11,Điện Biên,NO,Quài Tở,Điện Biên,Quài Tở,Điện Biên,21.541087,103.456957,15434,84.7975386,182.01,0,192,0,0,0,0,0,0,0,0,0,0,0,0
03164,Quảng Lâm,11,Điện Biên,NO,Quảng Lâm_03164,Điện Biên,Quảng Lâm_03164,Điện Biên,21.986041,102.591118,10389,44.54019293,233.25,0,129,0,0,0,0,0,0,0,0,0,0,0,0
03356,Sam Mứn,11,Điện Biên,NO,Sam Mứn,Điện Biên,Sam Mứn,Điện Biên,21.207441,102.948681,8484,54.34281322,156.12,0,106,0,0,0,0,0,0,0,0,0,0,0,0
03244,Sáng Nhè,11,Điện Biên,NO,Sáng Nhè,Điện Biên,Sáng Nhè,Điện Biên,21.846563,103.458536,0,0,190.02,0,0,0,0,0,0,0,0,0,0,0,0,0,0
03199,Si Pa Phìn,11,Điện Biên,NO,Si Pa Phìn,Điện Biên,Si Pa Phìn,Điện Biên,21.809437,102.920283,11168,46.21560108,241.65,0,139,0,0,0,0,0,0,0,0,0,0,0,0
03226,Sín Chải,11,Điện Biên,NO,Sín Chải,Điện Biên,Sín Chải,Điện Biên,22.053891,103.348228,13390,70.7978639,189.13,0,167,0,0,0,0,0,0,0,0,0,0,0,0
03158,Sín Thầu,11,Điện Biên,NO,Sín Thầu,Điện Biên,Sín Thầu,Điện Biên,22.396202,102.276332,6280,12.16064444,516.42,0,78,0,0,0,0,0,0,0,0,0,0,0,0
03241,Sính Phình,11,Điện Biên,NO,Sính Phình,Điện Biên,Sính Phình,Điện Biên,21.943611,103.327091,16397,93.94946428,174.53,0,204,0,0,0,0,0,0,0,0,0,0,0,0
03352,Thanh An,11,Điện Biên,NO,Thanh An_03352,Điện Biên,Thanh An_03352,Điện Biên,21.302063,103.038503,26255,192.0348157,136.72,0,328,0,0,0,0,0,0,0,0,0,0,0,0
03328,Thanh Nưa,11,Điện Biên,NO,Thanh Nưa,Điện Biên,Thanh Nưa,Điện Biên,21.422147,102.973268,30478,172.2212804,176.97,0,380,0,0,0,0,0,0,0,0,0,0,0,0
03349,Thanh Yên,11,Điện Biên,NO,Thanh Yên,Điện Biên,Thanh Yên,Điện Biên,21.306495,102.947451,16274,125.0883935,130.1,0,203,0,0,0,0,0,0,0,0,0,0,0,0
03385,Tìa Dình,11,Điện Biên,NO,Tìa Dình,Điện Biên,Tìa Dình,Điện Biên,21.142037,103.337945,7560,45.33461262,166.76,0,94,0,0,0,0,0,0,0,0,0,0,0,0
03217,Tủa Chùa,11,Điện Biên,NO,Tủa Chùa,Điện Biên,Tủa Chùa,Điện Biên,21.822482,103.361511,18472,170.5160159,108.33,0,230,0,0,0,0,0,0,0,0,0,0,0,0
03220,Tủa Thàng,11,Điện Biên,NO,Tủa Thàng,Điện Biên,Tủa Thàng,Điện Biên,22.03095,103.439883,9273,61.44314869,150.92,0,115,0,0,0,0,0,0,0,0,0,0,0,0
03253,Tuần Giáo,11,Điện Biên,NO,Tuần Giáo,Điện Biên,Tuần Giáo,Điện Biên,21.63099,103.444214,25197,232.2518204,108.49,0,314,0,0,0,0,0,0,0,0,0,0,0,0
03208,Xa Dung,11,Điện Biên,NO,Xa Dung,Điện Biên,Xa Dung,Điện Biên,21.318289,103.299565,16300,75.63805104,215.5,0,203,0,0,0,0,0,0,0,0,0,0,0,0
03424,Bản Bo,12,Lai Châu,NO,Bản Bo,Lai Châu,Bản Bo,Lai Châu,22.283004,103.687664,9845,97.64927594,100.82,0,123,0,0,0,0,0,0,0,0,0,0,0,0
03390,Bình Lư,12,Lai Châu,NO,Bình Lư,Lai Châu,Bình Lư,Lai Châu,22.344259,103.672971,19290,110.9194411,173.91,0,241,0,0,0,0,0,0,0,0,0,0,0,0
03466,Bum Nưa,12,Lai Châu,NO,Bum Nưa,Lai Châu,Bum Nưa,Lai Châu,22.486994,102.86905,7410,23.51410529,315.13,0,92,0,0,0,0,0,0,0,0,0,0,0,0
03433,Bum Tở,12,Lai Châu,NO,Bum Tở,Lai Châu,Bum Tở,Lai Châu,22.36403,102.782016,12141,31.611425,384.07,0,151,0,0,0,0,0,0,0,0,0,0,0,0
03571,Dào San,12,Lai Châu,NO,Dào San,Lai Châu,Dào San,Lai Châu,22.667555,103.351354,16716,121.756865,137.29,0,208,0,0,0,0,0,0,0,0,0,0,0,0
03388,Đoàn Kết,12,Lai Châu,NO,Đoàn Kết_03388,Lai Châu,Đoàn Kết_03388,Lai Châu,22.435283,103.408642,26337,196.0911325,134.31,0,329,0,0,0,0,0,0,0,0,0,0,0,0
03508,Hồng Thu,12,Lai Châu,NO,Hồng Thu,Lai Châu,Hồng Thu,Lai Châu,22.433791,103.281042,13859,77.85955056,178,0,173,0,0,0,0,0,0,0,0,0,0,0,0
03460,Hua Bum,12,Lai Châu,NO,Hua Bum,Lai Châu,Hua Bum,Lai Châu,22.369577,102.987489,5906,16.60294614,355.72,0,73,0,0,0,0,0,0,0,0,0,0,0,0
03640,Khoen On,12,Lai Châu,NO,Khoen On,Lai Châu,Khoen On,Lai Châu,21.770624,103.849496,11069,58.32542944,189.78,0,138,0,0,0,0,0,0,0,0,0,0,0,0
03583,Khổng Lào,12,Lai Châu,NO,Khổng Lào,Lai Châu,Khổng Lào,Lai Châu,22.590748,103.378151,17546,93.27025303,188.12,0,219,0,0,0,0,0,0,0,0,0,0,0,0
03430,Khun Há,12,Lai Châu,NO,Khun Há,Lai Châu,Khun Há,Lai Châu,22.262181,103.572172,9484,63.50184131,149.35,0,118,0,0,0,0,0,0,0,0,0,0,0,0
03487,Lê Lợi,12,Lai Châu,NO,Lê Lợi_03487,Lai Châu,Lê Lợi_03487,Lai Châu,22.184267,103.144541,944,3.273685671,288.36,0,11,0,0,0,0,0,0,0,0,0,0,0,0
03451,Mù Cả,12,Lai Châu,NO,Mù Cả,Lai Châu,Mù Cả,Lai Châu,22.465726,102.486126,3420,8.905322362,384.04,0,42,0,0,0,0,0,0,0,0,0,0,0,0
03601,Mường Khoa,12,Lai Châu,NO,Mường Khoa,Lai Châu,Mường Khoa,Lai Châu,22.221836,103.714969,12990,76.9413019,168.83,0,162,0,0,0,0,0,0,0,0,0,0,0,0
03637,Mường Kim,12,Lai Châu,NO,Mường Kim,Lai Châu,Mường Kim,Lai Châu,21.881591,103.801597,21135,66.81525038,316.32,0,264,0,0,0,0,0,0,0,0,0,0,0,0
03472,Mường Mô,12,Lai Châu,NO,Mường Mô,Lai Châu,Mường Mô,Lai Châu,22.177182,102.850919,7604,19.24283834,395.16,0,95,0,0,0,0,0,0,0,0,0,0,0,0
03445,Mường Tè,12,Lai Châu,NO,Mường Tè,Lai Châu,Mường Tè,Lai Châu,22.5034,102.643435,6598,22.59589041,292,0,82,0,0,0,0,0,0,0,0,0,0,0,0
03618,Mường Than,12,Lai Châu,NO,Mường Than,Lai Châu,Mường Than,Lai Châu,22.023526,103.862241,14437,93.69807892,154.08,0,180,0,0,0,0,0,0,0,0,0,0,0,0
03544,Nậm Cuổi,12,Lai Châu,NO,Nậm Cuổi,Lai Châu,Nậm Cuổi,Lai Châu,22.075351,103.478009,11196,63.19710996,177.16,0,139,0,0,0,0,0,0,0,0,0,0,0,0
03434,Nậm Hàng,12,Lai Châu,NO,Nậm Hàng,Lai Châu,Nậm Hàng,Lai Châu,22.154724,103.022224,11630,34.62133841,335.92,0,145,0,0,0,0,0,0,0,0,0,0,0,0
03538,Nậm Mạ,12,Lai Châu,NO,Nậm Mạ,Lai Châu,Nậm Mạ,Lai Châu,22.151663,103.438501,6743,59.81548833,112.73,0,84,0,0,0,0,0,0,0,0,0,0,0,0
03613,Nậm Sỏ,12,Lai Châu,NO,Nậm Sỏ,Lai Châu,Nậm Sỏ,Lai Châu,22.055604,103.599333,0,0,263.35,0,0,0,0,0,0,0,0,0,0,0,0,0,0
03517,Nậm Tăm,12,Lai Châu,NO,Nậm Tăm,Lai Châu,Nậm Tăm,Lai Châu,22.287413,103.392739,13222,54.57322107,242.28,0,165,0,0,0,0,0,0,0,0,0,0,0,0
03503,Pa Tần,12,Lai Châu,NO,Pa Tần,Lai Châu,Pa Tần,Lai Châu,22.40651,103.10916,9371,29.60540865,316.53,0,117,0,0,0,0,0,0,0,0,0,0,0,0
03442,Pa Ủ,12,Lai Châu,NO,Pa Ủ,Lai Châu,Pa Ủ,Lai Châu,22.618104,102.688085,6307,14.18642314,444.58,0,78,0,0,0,0,0,0,0,0,0,0,0,0
03616,Pắc Ta,12,Lai Châu,NO,Pắc Ta,Lai Châu,Pắc Ta,Lai Châu,22.107933,103.857104,11097,65.82631392,168.58,0,138,0,0,0,0,0,0,0,0,0,0,0,0
03549,Phong Thổ,12,Lai Châu,NO,Phong Thổ,Lai Châu,Phong Thổ,Lai Châu,22.565862,103.221544,24152,90.55528477,266.71,0,301,0,0,0,0,0,0,0,0,0,0,0,0
03532,Pu Sam Cáp,12,Lai Châu,NO,Pu Sam Cáp,Lai Châu,Pu Sam Cáp,Lai Châu,22.230713,103.48485,12038,79.07771136,152.23,0,150,0,0,0,0,0,0,0,0,0,0,0,0
03562,Sì Lở Lầu,12,Lai Châu,NO,Sì Lở Lầu,Lai Châu,Sì Lở Lầu,Lai Châu,22.743813,103.366495,16792,113.6129905,147.8,0,209,0,0,0,0,0,0,0,0,0,0,0,0
03478,Sìn Hồ,12,Lai Châu,NO,Sìn Hồ,Lai Châu,Sìn Hồ,Lai Châu,22.319975,103.224187,14527,90.9757014,159.68,0,181,0,0,0,0,0,0,0,0,0,0,0,0
03394,Sin Suối Hồ,12,Lai Châu,NO,Sin Suối Hồ,Lai Châu,Sin Suối Hồ,Lai Châu,22.520673,103.49494,16939,66.19123911,255.91,0,211,0,0,0,0,0,0,0,0,0,0,0,0
03405,Tả Lèng,12,Lai Châu,NO,Tả Lèng,Lai Châu,Tả Lèng,Lai Châu,22.401976,103.561676,13092,101.9943908,128.36,0,163,0,0,0,0,0,0,0,0,0,0,0,0
03463,Tà Tổng,12,Lai Châu,NO,Tà Tổng,Lai Châu,Tà Tổng,Lai Châu,22.301663,102.612394,8260,16.13249741,512.01,0,103,0,0,0,0,0,0,0,0,0,0,0,0
03408,Tân Phong,12,Lai Châu,NO,Tân Phong_03408,Lai Châu,Tân Phong_03408,Lai Châu,22.355673,103.474845,37797,354.0039337,106.77,0,472,0,0,0,0,0,0,0,0,0,0,0,0
03598,Tân Uyên,12,Lai Châu,NO,Tân Uyên_03598,Lai Châu,Tân Uyên_03598,Lai Châu,22.139651,103.736537,31534,106.4438819,296.25,0,394,0,0,0,0,0,0,0,0,0,0,0,0
03595,Than Uyên,12,Lai Châu,NO,Than Uyên,Lai Châu,Than Uyên,Lai Châu,21.957116,103.880116,28287,214.1494436,132.09,0,353,0,0,0,0,0,0,0,0,0,0,0,0
03439,Thu Lũm,12,Lai Châu,NO,Thu Lũm,Lai Châu,Thu Lũm,Lai Châu,22.668139,102.433978,5448,21.65772212,251.55,0,68,0,0,0,0,0,0,0,0,0,0,0,0
03529,Tủa Sín Chải,12,Lai Châu,NO,Tủa Sín Chải,Lai Châu,Tủa Sín Chải,Lai Châu,22.190827,103.274674,16795,57.34430483,292.88,0,209,0,0,0,0,0,0,0,0,0,0,0,0
03856,Bắc Yên,14,Sơn La,NO,Bắc Yên,Sơn La,Bắc Yên,Sơn La,21.188126,104.452502,22628,115.904318,195.23,0,282,0,0,0,0,0,0,0,0,0,0,0,0
03724,Bình Thuận,14,Sơn La,NO,Bình Thuận_03724,Sơn La,Bình Thuận_03724,Sơn La,21.554352,103.594713,17758,145.8203317,121.78,0,221,0,0,0,0,0,0,0,0,0,0,0,0
04171,Bó Sinh,14,Sơn La,NO,Bó Sinh,Sơn La,Bó Sinh,Sơn La,21.258671,103.468829,17066,110.9406488,153.83,0,213,0,0,0,0,0,0,0,0,0,0,0,0
03664,Chiềng An,14,Sơn La,NO,Chiềng An,Sơn La,Chiềng An,Sơn La,21.38453,103.894797,21069,141.3268044,149.08,0,263,0,0,0,0,0,0,0,0,0,0,0,0
03670,Chiềng Cơi,14,Sơn La,NO,Chiềng Cơi,Sơn La,Chiềng Cơi,Sơn La,21.298123,103.871724,23529,251.4856776,93.56,0,294,0,0,0,0,0,0,0,0,0,0,0,0
04078,Chiềng Hặc,14,Sơn La,NO,Chiềng Hặc,Sơn La,Chiềng Hặc,Sơn La,20.978931,104.424738,19409,80.90117127,239.91,0,242,0,0,0,0,0,0,0,0,0,0,0,0
03850,Chiềng Hoa,14,Sơn La,NO,Chiềng Hoa,Sơn La,Chiềng Hoa,Sơn La,21.464737,104.20313,18293,61.70062062,296.48,0,228,0,0,0,0,0,0,0,0,0,0,0,0
04204,Chiềng Khoong,14,Sơn La,NO,Chiềng Khoong,Sơn La,Chiềng Khoong,Sơn La,20.964488,103.754213,24076,94.83593965,253.87,0,300,0,0,0,0,0,0,0,0,0,0,0,0
04222,Chiềng Khương,14,Sơn La,NO,Chiềng Khương,Sơn La,Chiềng Khương,Sơn La,20.961426,104.003563,19400,129.4887198,149.82,0,242,0,0,0,0,0,0,0,0,0,0,0,0
03754,Chiềng La,14,Sơn La,NO,Chiềng La,Sơn La,Chiềng La,Sơn La,21.466709,103.764919,21122,167.4621422,126.13,0,264,0,0,0,0,0,0,0,0,0,0,0,0
03814,Chiềng Lao,14,Sơn La,NO,Chiềng Lao,Sơn La,Chiềng Lao,Sơn La,21.642346,103.945186,2178,6.074466602,358.55,0,27,0,0,0,0,0,0,0,0,0,0,0,0
04132,Chiềng Mai,14,Sơn La,NO,Chiềng Mai,Sơn La,Chiềng Mai,Sơn La,21.190007,103.980394,24661,162.4036878,151.85,0,308,0,0,0,0,0,0,0,0,0,0,0,0
04123,Chiềng Mung,14,Sơn La,NO,Chiềng Mung,Sơn La,Chiềng Mung,Sơn La,21.27765,104.046657,28819,202.7508091,142.14,0,360,0,0,0,0,0,0,0,0,0,0,0,0
03892,Chiềng Sại,14,Sơn La,NO,Chiềng Sại,Sơn La,Chiềng Sại,Sơn La,21.071321,104.458192,696,5.588117222,124.55,0,8,0,0,0,0,0,0,0,0,0,0,0,0
03679,Chiềng Sinh,14,Sơn La,NO,Chiềng Sinh_03679,Sơn La,Chiềng Sinh_03679,Sơn La,21.308287,103.968947,28096,410.7602339,68.4,0,351,0,0,0,0,0,0,0,0,0,0,0,0
04195,Chiềng Sơ,14,Sơn La,NO,Chiềng Sơ,Sơn La,Chiềng Sơ,Sơn La,21.131891,103.602772,17775,126.6837716,140.31,0,222,0,0,0,0,0,0,0,0,0,0,0,0
03985,Chiềng Sơn,14,Sơn La,NO,Chiềng Sơn,Sơn La,Chiềng Sơn,Sơn La,20.740539,104.663739,14675,71.62030259,204.9,0,183,0,0,0,0,0,0,0,0,0,0,0,0
04108,Chiềng Sung,14,Sơn La,NO,Chiềng Sung,Sơn La,Chiềng Sung,Sơn La,21.308739,104.131073,14692,134.443631,109.28,0,183,0,0,0,0,0,0,0,0,0,0,0,0
03781,Co Mạ,14,Sơn La,NO,Co Mạ,Sơn La,Co Mạ,Sơn La,21.305038,103.529083,1509,7.042187792,214.28,0,18,0,0,0,0,0,0,0,0,0,0,0,0
04000,Đoàn Kết,14,Sơn La,NO,Đoàn Kết_04000,Sơn La,Đoàn Kết_04000,Sơn La,20.966123,104.723701,18598,77.27914901,240.66,0,232,0,0,0,0,0,0,0,0,0,0,0,0
03922,Gia Phù,14,Sơn La,NO,Gia Phù,Sơn La,Gia Phù,Sơn La,21.179275,104.556465,22736,204.2400287,111.32,0,284,0,0,0,0,0,0,0,0,0,0,0,0
04210,Huổi Một,14,Sơn La,NO,Huổi Một,Sơn La,Huổi Một,Sơn La,21.033002,103.646433,12803,53.19953461,240.66,0,160,0,0,0,0,0,0,0,0,0,0,0,0
03961,Kim Bon,14,Sơn La,NO,Kim Bon,Sơn La,Kim Bon,Sơn La,21.109126,104.584145,10236,97.9427806,104.51,0,127,0,0,0,0,0,0,0,0,0,0,0,0
03763,Long Hẹ,14,Sơn La,NO,Long Hẹ,Sơn La,Long Hẹ,Sơn La,21.446983,103.505309,8784,55.45454545,158.4,0,109,0,0,0,0,0,0,0,0,0,0,0,0
04096,Lóng Phiêng,14,Sơn La,NO,Lóng Phiêng,Sơn La,Lóng Phiêng,Sơn La,20.884389,104.385778,11562,78.22204181,147.81,0,144,0,0,0,0,0,0,0,0,0,0,0,0
04045,Lóng Sập,14,Sơn La,NO,Lóng Sập,Sơn La,Lóng Sập,Sơn La,20.793191,104.50721,9983,47.24562234,211.3,0,124,0,0,0,0,0,0,0,0,0,0,0,0
04105,Mai Sơn,14,Sơn La,NO,Mai Sơn,Sơn La,Mai Sơn,Sơn La,21.146182,104.157729,54287,330.2128954,164.4,0,678,0,0,0,0,0,0,0,0,0,0,0,0
03980,Mộc Châu,14,Sơn La,NO,Mộc Châu,Sơn La,Mộc Châu,Sơn La,20.865858,104.581256,21863,130.4319294,167.62,0,273,0,0,0,0,0,0,0,0,0,0,0,0
03979,Mộc Sơn,14,Sơn La,NO,Mộc Sơn,Sơn La,Mộc Sơn,Sơn La,20.807748,104.645117,15577,411.219641,37.88,0,194,0,0,0,0,0,0,0,0,0,0,0,0
03799,Muổi Nọi,14,Sơn La,NO,Muổi Nọi,Sơn La,Muổi Nọi,Sơn La,21.300321,103.79562,16208,125.9362859,128.7,0,202,0,0,0,0,0,0,0,0,0,0,0,0
03760,Mường Bám,14,Sơn La,NO,Mường Bám,Sơn La,Mường Bám,Sơn La,21.381917,103.389789,11125,146.0740546,76.16,0,139,0,0,0,0,0,0,0,0,0,0,0,0
03943,Mường Bang,14,Sơn La,NO,Mường Bang,Sơn La,Mường Bang,Sơn La,21.16672,104.792396,13303,49.24301314,270.15,0,166,0,0,0,0,0,0,0,0,0,0,0,0
03847,Mường Bú,14,Sơn La,NO,Mường Bú,Sơn La,Mường Bú,Sơn La,21.402295,104.036931,26214,122.6959981,213.65,0,327,0,0,0,0,0,0,0,0,0,0,0,0
04117,Mường Chanh,14,Sơn La,NO,Mường Chanh_04117,Sơn La,Mường Chanh_04117,Sơn La,21.219677,103.8751,4037,61.65241295,65.48,0,50,0,0,0,0,0,0,0,0,0,0,0,0
03688,Mường Chiên,14,Sơn La,NO,Mường Chiên,Sơn La,Mường Chiên,Sơn La,21.919383,103.602901,14544,38.0533752,382.2,0,181,0,0,0,0,0,0,0,0,0,0,0,0
03907,Mường Cơi,14,Sơn La,NO,Mường Cơi,Sơn La,Mường Cơi,Sơn La,21.306308,104.763798,20276,103.9901528,194.98,0,253,0,0,0,0,0,0,0,0,0,0,0,0
03727,Mường É,14,Sơn La,NO,Mường É,Sơn La,Mường É,Sơn La,21.498905,103.557521,15404,110.0993496,139.91,0,192,0,0,0,0,0,0,0,0,0,0,0,0
03694,Mường Giôn,14,Sơn La,NO,Mường Giôn,Sơn La,Mường Giôn,Sơn La,21.74909,103.681247,16739,57.61340951,290.54,0,209,0,0,0,0,0,0,0,0,0,0,0,0
04219,Mường Hung,14,Sơn La,NO,Mường Hung,Sơn La,Mường Hung,Sơn La,20.961426,103.876311,25518,112.8665576,226.09,0,318,0,0,0,0,0,0,0,0,0,0,0,0
03757,Mường Khiêng,14,Sơn La,NO,Mường Khiêng,Sơn La,Mường Khiêng,Sơn La,21.489857,103.889802,2547,12.47306562,204.2,0,31,0,0,0,0,0,0,0,0,0,0,0,0
03808,Mường La,14,Sơn La,NO,Mường La,Sơn La,Mường La,Sơn La,21.533799,104.050965,33915,99.20727783,341.86,0,423,0,0,0,0,0,0,0,0,0,0,0,0
04183,Mường Lầm,14,Sơn La,NO,Mường Lầm,Sơn La,Mường Lầm,Sơn La,21.14027,103.465229,16222,97.07959306,167.1,0,202,0,0,0,0,0,0,0,0,0,0,0,0
04246,Mường Lạn,14,Sơn La,NO,Mường Lạn_04246,Sơn La,Mường Lạn_04246,Sơn La,20.767337,103.707969,11302,42.66676734,264.89,0,141,0,0,0,0,0,0,0,0,0,0,0,0
04240,Mường Lèo,14,Sơn La,NO,Mường Lèo,Sơn La,Mường Lèo,Sơn La,20.898806,103.35839,4434,11.80008516,375.76,0,55,0,0,0,0,0,0,0,0,0,0,0,0
03712,Mường Sại,14,Sơn La,NO,Mường Sại,Sơn La,Mường Sại,Sơn La,21.59788,103.735291,9908,80.59215878,122.94,0,123,0,0,0,0,0,0,0,0,0,0,0,0
03784,Nậm Lầu,14,Sơn La,NO,Nậm Lầu,Sơn La,Nậm Lầu,Sơn La,21.369554,103.669883,18760,75.75818762,247.63,0,234,0,0,0,0,0,0,0,0,0,0,0,0
04186,Nậm Ty,14,Sơn La,NO,Nậm Ty,Sơn La,Nậm Ty,Sơn La,21.223396,103.66107,17292,85.65060181,201.89,0,216,0,0,0,0,0,0,0,0,0,0,0,0
03820,Ngọc Chiến,14,Sơn La,NO,Ngọc Chiến,Sơn La,Ngọc Chiến,Sơn La,21.611637,104.201298,12463,58.7350959,212.19,0,155,0,0,0,0,0,0,0,0,0,0,0,0
03871,Pắc Ngà,14,Sơn La,NO,Pắc Ngà,Sơn La,Pắc Ngà,Sơn La,21.299607,104.230471,13762,112.2603801,122.59,0,172,0,0,0,0,0,0,0,0,0,0,0,0
04144,Phiêng Cằm,14,Sơn La,NO,Phiêng Cằm,Sơn La,Phiêng Cằm,Sơn La,21.15218,103.835254,14991,53.47626012,280.33,0,187,0,0,0,0,0,0,0,0,0,0,0,0
04099,Phiêng Khoài,14,Sơn La,NO,Phiêng Khoài,Sơn La,Phiêng Khoài,Sơn La,20.956532,104.293381,12881,124.1302881,103.77,0,161,0,0,0,0,0,0,0,0,0,0,0,0
04159,Phiêng Pằn,14,Sơn La,NO,Phiêng Pằn,Sơn La,Phiêng Pằn,Sơn La,21.055459,104.04301,25593,79.81599875,320.65,0,319,0,0,0,0,0,0,0,0,0,0,0,0
03910,Phù Yên,14,Sơn La,NO,Phù Yên,Sơn La,Phù Yên,Sơn La,21.267548,104.6613,49039,415.6551958,117.98,0,612,0,0,0,0,0,0,0,0,0,0,0,0
04228,Púng Bánh,14,Sơn La,NO,Púng Bánh,Sơn La,Púng Bánh,Sơn La,21.005841,103.469379,17899,49.08677051,364.64,0,223,0,0,0,0,0,0,0,0,0,0,0,0
03703,Quỳnh Nhai,14,Sơn La,NO,Quỳnh Nhai,Sơn La,Quỳnh Nhai,Sơn La,21.633859,103.617586,0,0,30.55,0,0,0,0,0,0,0,0,0,0,0,0,0,0
04006,Song Khủa,14,Sơn La,NO,Song Khủa,Sơn La,Song Khủa,Sơn La,20.920036,104.899921,16428,85.3624318,192.45,0,205,0,0,0,0,0,0,0,0,0,0,0,0
04168,Sông Mã,14,Sơn La,NO,Sông Mã,Sơn La,Sông Mã,Sơn La,21.090727,103.736314,27142,256.0807623,105.99,0,339,0,0,0,0,0,0,0,0,0,0,0,0
04231,Sốp Cộp,14,Sơn La,NO,Sốp Cộp,Sơn La,Sốp Cộp,Sơn La,20.869979,103.572005,24972,53.4789592,466.95,0,312,0,0,0,0,0,0,0,0,0,0,0,0
03901,Suối Tọ,14,Sơn La,NO,Suối Tọ,Sơn La,Suối Tọ,Sơn La,21.322197,104.599475,6576,37.04997465,177.49,0,82,0,0,0,0,0,0,0,0,0,0,0,0
04136,Tà Hộc,14,Sơn La,NO,Tà Hộc,Sơn La,Tà Hộc,Sơn La,21.244811,104.217624,14195,94.91174111,149.56,0,177,0,0,0,0,0,0,0,0,0,0,0,0
03880,Tạ Khoa,14,Sơn La,NO,Tạ Khoa,Sơn La,Tạ Khoa,Sơn La,21.16482,104.330316,16093,83.87012716,191.88,0,201,0,0,0,0,0,0,0,0,0,0,0,0
03868,Tà Xùa,14,Sơn La,NO,Tà Xùa,Sơn La,Tà Xùa,Sơn La,21.327023,104.493048,11611,49.68973338,233.67,0,145,0,0,0,0,0,0,0,0,0,0,0,0
03970,Tân Phong,14,Sơn La,NO,Tân Phong_03970,Sơn La,Tân Phong_03970,Sơn La,21.077061,104.740614,7036,51.94536729,135.45,0,87,0,0,0,0,0,0,0,0,0,0,0,0
03997,Tân Yên,14,Sơn La,NO,Tân Yên_03997,Sơn La,Tân Yên_03997,Sơn La,20.979421,104.588781,1905,9.881217905,192.79,0,23,0,0,0,0,0,0,0,0,0,0,0,0
03982,Thảo Nguyên,14,Sơn La,NO,Thảo Nguyên,Sơn La,Thảo Nguyên,Sơn La,20.856169,104.68312,23306,438.9903937,53.09,0,291,0,0,0,0,0,0,0,0,0,0,0,0
03721,Thuận Châu,14,Sơn La,NO,Thuận Châu,Sơn La,Thuận Châu,Sơn La,21.436855,103.709524,48686,366.5286456,132.83,0,608,0,0,0,0,0,0,0,0,0,0,0,0
03646,Tô Hiệu,14,Sơn La,NO,Tô Hiệu,Sơn La,Tô Hiệu,Sơn La,21.326398,103.924536,53180,4461.409396,11.92,0,664,0,0,0,0,0,0,0,0,0,0,0,0
04018,Tô Múa,14,Sơn La,NO,Tô Múa,Sơn La,Tô Múa,Sơn La,20.924633,104.816442,15242,83.75645675,181.98,0,190,0,0,0,0,0,0,0,0,0,0,0,0
03958,Tường Hạ,14,Sơn La,NO,Tường Hạ,Sơn La,Tường Hạ,Sơn La,21.140942,104.672635,14594,120.7612743,120.85,0,182,0,0,0,0,0,0,0,0,0,0,0,0
04048,Vân Hồ,14,Sơn La,NO,Vân Hồ,Sơn La,Vân Hồ,Sơn La,20.793244,104.85368,25917,96.56110283,268.4,0,323,0,0,0,0,0,0,0,0,0,0,0,0
04033,Vân Sơn,14,Sơn La,NO,Vân Sơn_04033,Sơn La,Vân Sơn_04033,Sơn La,20.873953,104.717551,16502,416.6119667,39.61,0,206,0,0,0,0,0,0,0,0,0,0,0,0
03862,Xím Vàng,14,Sơn La,NO,Xím Vàng,Sơn La,Xím Vàng,Sơn La,21.355532,104.326548,7875,33.89283409,232.35,0,98,0,0,0,0,0,0,0,0,0,0,0,0
04057,Xuân Nha,14,Sơn La,NO,Xuân Nha,Sơn La,Xuân Nha,Sơn La,20.667056,104.738199,10499,39.86406956,263.37,0,131,0,0,0,0,0,0,0,0,0,0,0,0
04075,Yên Châu,14,Sơn La,NO,Yên Châu,Sơn La,Yên Châu,Sơn La,21.080642,104.294362,34277,139.0265666,246.55,0,428,0,0,0,0,0,0,0,0,0,0,0,0
04087,Yên Sơn,14,Sơn La,NO,Yên Sơn_04087,Sơn La,Yên Sơn_04087,Sơn La,21.009044,104.185859,13078,112.1419997,116.62,0,163,0,0,0,0,0,0,0,0,0,0,0,0
02686,A Mú Sung,15,Lào Cai,NO,A Mú Sung,Lào Cai,A Mú Sung,Lào Cai,22.734052,103.661937,6174,59.13793103,104.4,0,77,0,0,0,0,0,0,0,0,0,0,0,0
04543,Âu Lâu,15,Lào Cai,NO,Âu Lâu,Lào Cai,Âu Lâu,Lào Cai,21.660307,104.902338,24100,364.2133898,66.17,0,301,0,0,0,0,0,0,0,0,0,0,0,0
02839,Bắc Hà,15,Lào Cai,NO,Bắc Hà,Lào Cai,Bắc Hà,Lào Cai,22.524458,104.310059,31644,176.0934891,179.7,0,395,0,0,0,0,0,0,0,0,0,0,0,0
03046,Bản Hồ,15,Lào Cai,NO,Bản Hồ,Lào Cai,Bản Hồ,Lào Cai,22.240847,103.945087,9695,58.33333333,166.2,0,121,0,0,0,0,0,0,0,0,0,0,0,0
02788,Bản Lầu,15,Lào Cai,NO,Bản Lầu,Lào Cai,Bản Lầu,Lào Cai,22.596252,104.06222,19241,153.5594573,125.3,0,240,0,0,0,0,0,0,0,0,0,0,0,0
02869,Bản Liền,15,Lào Cai,NO,Bản Liền,Lào Cai,Bản Liền,Lào Cai,22.494725,104.383441,4376,57.05345502,76.7,0,54,0,0,0,0,0,0,0,0,0,0,0,0
02725,Bản Xèo,15,Lào Cai,NO,Bản Xèo,Lào Cai,Bản Xèo,Lào Cai,22.516891,103.766909,887,11.32822478,78.3,0,11,0,0,0,0,0,0,0,0,0,0,0,0
04750,Bảo Ái,15,Lào Cai,NO,Bảo Ái,Lào Cai,Bảo Ái,Lào Cai,21.898126,104.854017,25197,154.1949697,163.41,0,314,0,0,0,0,0,0,0,0,0,0,0,0
02989,Bảo Hà,15,Lào Cai,NO,Bảo Hà,Lào Cai,Bảo Hà,Lào Cai,22.192731,104.341062,35370,145.5555556,243,0,442,0,0,0,0,0,0,0,0,0,0,0,0
02890,Bảo Nhai,15,Lào Cai,NO,Bảo Nhai,Lào Cai,Bảo Nhai,Lào Cai,22.462729,104.217577,17987,115.3012821,156,0,224,0,0,0,0,0,0,0,0,0,0,0,0
02905,Bảo Thắng,15,Lào Cai,NO,Bảo Thắng,Lào Cai,Bảo Thắng,Lào Cai,22.366717,104.145228,340,2.119700748,160.4,0,4,0,0,0,0,0,0,0,0,0,0,0,0
02947,Bảo Yên,15,Lào Cai,NO,Bảo Yên,Lào Cai,Bảo Yên,Lào Cai,22.20936,104.465106,2235,18.76574307,119.1,0,27,0,0,0,0,0,0,0,0,0,0,0,0
02683,Bát Xát,15,Lào Cai,NO,Bát Xát,Lào Cai,Bát Xát,Lào Cai,22.52071,103.870758,28231,148.5842105,190,0,352,0,0,0,0,0,0,0,0,0,0,0,0
02671,Cam Đường,15,Lào Cai,NO,Cam Đường,Lào Cai,Cam Đường,Lào Cai,22.4277,104.009686,70374,1174.858097,59.9,0,879,0,0,0,0,0,0,0,0,0,0,0,0
04726,Cảm Nhân,15,Lào Cai,NO,Cảm Nhân,Lào Cai,Cảm Nhân,Lào Cai,22.004196,104.930265,1797,11.84028464,151.77,0,22,0,0,0,0,0,0,0,0,0,0,0,0
02782,Cao Sơn,15,Lào Cai,NO,Cao Sơn_02782,Lào Cai,Cao Sơn_02782,Lào Cai,22.623781,104.152559,9198,73.62523013,124.93,0,114,0,0,0,0,0,0,0,0,0,0,0,0
04693,Cát Thịnh,15,Lào Cai,NO,Cát Thịnh,Lào Cai,Cát Thịnh,Lào Cai,21.464046,104.699756,11787,69.70019514,169.11,0,147,0,0,0,0,0,0,0,0,0,0,0,0
04681,Cầu Thia,15,Lào Cai,NO,Cầu Thia,Lào Cai,Cầu Thia,Lào Cai,21.555082,104.498122,26162,821.6708543,31.84,0,327,0,0,0,0,0,0,0,0,0,0,0,0
04699,Chấn Thịnh,15,Lào Cai,NO,Chấn Thịnh,Lào Cai,Chấn Thịnh,Lào Cai,21.503859,104.814112,1948,16.16061059,120.54,0,24,0,0,0,0,0,0,0,0,0,0,0,0
04387,Châu Quế,15,Lào Cai,NO,Châu Quế,Lào Cai,Châu Quế,Lào Cai,22.034798,104.455006,13952,85.99075501,162.25,0,174,0,0,0,0,0,0,0,0,0,0,0,0
04489,Chế Tạo,15,Lào Cai,NO,Chế Tạo,Lào Cai,Chế Tạo,Lào Cai,21.707097,104.031397,274,1.168742535,234.44,0,3,0,0,0,0,0,0,0,0,0,0,0,0
03091,Chiềng Ken,15,Lào Cai,NO,Chiềng Ken,Lào Cai,Chiềng Ken,Lào Cai,22.00207,104.383779,9648,50.4338735,191.3,0,120,0,0,0,0,0,0,0,0,0,0,0,0
02896,Cốc Lầu,15,Lào Cai,NO,Cốc Lầu,Lào Cai,Cốc Lầu,Lào Cai,22.395208,104.353192,91,0.670103093,135.8,0,1,0,0,0,0,0,0,0,0,0,0,0,0
02746,Cốc San,15,Lào Cai,NO,Cốc San,Lào Cai,Cốc San,Lào Cai,22.466405,103.925421,11492,200.9090909,57.2,0,143,0,0,0,0,0,0,0,0,0,0,0,0
02707,Dền Sáng,15,Lào Cai,NO,Dền Sáng,Lào Cai,Dền Sáng,Lào Cai,22.571836,103.655411,1260,8.502024291,148.2,0,15,0,0,0,0,0,0,0,0,0,0,0,0
04399,Đông Cuông,15,Lào Cai,NO,Đông Cuông,Lào Cai,Đông Cuông,Lào Cai,21.982987,104.602411,22745,155.468216,146.3,0,284,0,0,0,0,0,0,0,0,0,0,0,0
03106,Dương Quỳ,15,Lào Cai,NO,Dương Quỳ,Lào Cai,Dương Quỳ,Lào Cai,22.0238,104.167423,9253,58.89879058,157.1,0,115,0,0,0,0,0,0,0,0,0,0,0,0
04636,Gia Hội,15,Lào Cai,NO,Gia Hội,Lào Cai,Gia Hội,Lào Cai,21.700155,104.38018,15456,72.47831184,213.25,0,193,0,0,0,0,0,0,0,0,0,0,0,0
02923,Gia Phú,15,Lào Cai,NO,Gia Phú,Lào Cai,Gia Phú,Lào Cai,22.342183,104.085463,29505,288.1347656,102.4,0,368,0,0,0,0,0,0,0,0,0,0,0,0
04585,Hạnh Phúc,15,Lào Cai,NO,Hạnh Phúc_04585,Lào Cai,Hạnh Phúc_04585,Lào Cai,21.481131,104.350463,14269,73.60846015,193.85,0,178,0,0,0,0,0,0,0,0,0,0,0,0
02680,Hợp Thành,15,Lào Cai,NO,Hợp Thành_02680,Lào Cai,Hợp Thành_02680,Lào Cai,22.37508,103.974271,11226,272.4757282,41.2,0,140,0,0,0,0,0,0,0,0,0,0,0,0
04576,Hưng Khánh,15,Lào Cai,NO,Hưng Khánh,Lào Cai,Hưng Khánh,Lào Cai,21.598251,104.713778,14571,119.2584711,122.18,0,182,0,0,0,0,0,0,0,0,0,0,0,0
04342,Khánh Hòa,15,Lào Cai,NO,Khánh Hòa_04342,Lào Cai,Khánh Hòa_04342,Lào Cai,22.111332,104.638353,18236,121.760032,149.77,0,227,0,0,0,0,0,0,0,0,0,0,0,0
03103,Khánh Yên,15,Lào Cai,NO,Khánh Yên,Lào Cai,Khánh Yên,Lào Cai,22.012466,104.29512,14797,85.23617512,173.6,0,184,0,0,0,0,0,0,0,0,0,0,0,0
04465,Khao Mang,15,Lào Cai,NO,Khao Mang,Lào Cai,Khao Mang,Lào Cai,21.908346,103.974708,9686,80.6763285,120.06,0,121,0,0,0,0,0,0,0,0,0,0,0,0
04381,Lâm Giang,15,Lào Cai,NO,Lâm Giang,Lào Cai,Lâm Giang,Lào Cai,22.106524,104.48208,17057,95.03565857,179.48,0,213,0,0,0,0,0,0,0,0,0,0,0,0
04309,Lâm Thượng,15,Lào Cai,NO,Lâm Thượng,Lào Cai,Lâm Thượng,Lào Cai,22.22054,104.683444,20296,158.5625,128,0,253,0,0,0,0,0,0,0,0,0,0,0,0
02647,Lào Cai,15,Lào Cai,NO,Lào Cai,Lào Cai,Lào Cai,Lào Cai,22.506434,104.005002,79813,1103.60896,72.32,0,997,0,0,0,0,0,0,0,0,0,0,0,0
04474,Lao Chải,15,Lào Cai,NO,Lao Chải_04474,Lào Cai,Lao Chải_04474,Lào Cai,21.816338,104.005805,10507,66.50420913,157.99,0,131,0,0,0,0,0,0,0,0,0,0,0,0
04660,Liên Sơn,15,Lào Cai,NO,Liên Sơn_04660,Lào Cai,Liên Sơn_04660,Lào Cai,21.643395,104.497682,33005,274.5611846,120.21,0,412,0,0,0,0,0,0,0,0,0,0,0,0
04303,Lục Yên,15,Lào Cai,NO,Lục Yên,Lào Cai,Lục Yên,Lào Cai,22.117904,104.776047,31268,391.1433575,79.94,0,390,0,0,0,0,0,0,0,0,0,0,0,0
02848,Lùng Phình,15,Lào Cai,NO,Lùng Phình,Lào Cai,Lùng Phình,Lào Cai,22.620502,104.338427,12577,124.5247525,101,0,157,0,0,0,0,0,0,0,0,0,0,0,0
04537,Lương Thịnh,15,Lào Cai,NO,Lương Thịnh,Lào Cai,Lương Thịnh,Lào Cai,21.642768,104.772408,13159,139.6773166,94.21,0,164,0,0,0,0,0,0,0,0,0,0,0,0
04375,Mậu A,15,Lào Cai,NO,Mậu A,Lào Cai,Mậu A,Lào Cai,21.901564,104.712651,42148,291.6412953,144.52,0,526,0,0,0,0,0,0,0,0,0,0,0,0
03121,Minh Lương,15,Lào Cai,NO,Minh Lương,Lào Cai,Minh Lương,Lào Cai,21.977667,104.093989,9491,45.93901258,206.6,0,118,0,0,0,0,0,0,0,0,0,0,0,0
04450,Mỏ Vàng,15,Lào Cai,NO,Mỏ Vàng,Lào Cai,Mỏ Vàng,Lào Cai,21.710939,104.624935,0,0,167.62,0,0,0,0,0,0,0,0,0,0,0,0,0,0
04456,Mù Cang Chải,15,Lào Cai,NO,Mù Cang Chải,Lào Cai,Mù Cang Chải,Lào Cai,21.851854,104.118076,15316,104.2259272,146.95,0,191,0,0,0,0,0,0,0,0,0,0,0,0
03043,Mường Bo,15,Lào Cai,NO,Mường Bo,Lào Cai,Mường Bo,Lào Cai,22.223767,104.024827,7490,50.50573163,148.3,0,93,0,0,0,0,0,0,0,0,0,0,0,0
02728,Mường Hum,15,Lào Cai,NO,Mường Hum,Lào Cai,Mường Hum,Lào Cai,22.470264,103.651155,7064,33.19548872,212.8,0,88,0,0,0,0,0,0,0,0,0,0,0,0
02761,Mường Khương,15,Lào Cai,NO,Mường Khương,Lào Cai,Mường Khương,Lào Cai,22.730362,104.09814,25332,149.7163121,169.2,0,316,0,0,0,0,0,0,0,0,0,0,0,0
04345,Mường Lai,15,Lào Cai,NO,Mường Lai,Lào Cai,Mường Lai,Lào Cai,22.059306,104.844048,26515,184.3367631,143.84,0,331,0,0,0,0,0,0,0,0,0,0,0,0
03076,Nậm Chày,15,Lào Cai,NO,Nậm Chày,Lào Cai,Nậm Chày,Lào Cai,22.116483,104.095955,5811,40.89373681,142.1,0,72,0,0,0,0,0,0,0,0,0,0,0,0
04462,Nậm Có,15,Lào Cai,NO,Nậm Có,Lào Cai,Nậm Có,Lào Cai,21.859252,104.276304,10387,51.52281746,201.6,0,129,0,0,0,0,0,0,0,0,0,0,0,0
04273,Nam Cường,15,Lào Cai,NO,Nam Cường_04273,Lào Cai,Nam Cường_04273,Lào Cai,21.752569,104.886706,18407,399.3707963,46.09,0,230,0,0,0,0,0,0,0,0,0,0,0,0
03085,Nậm Xé,15,Lào Cai,NO,Nậm Xé,Lào Cai,Nậm Xé,Lào Cai,22.042617,104.002384,1532,8.961160505,170.96,0,19,0,0,0,0,0,0,0,0,0,0,0,0
02953,Nghĩa Đô,15,Lào Cai,NO,Nghĩa Đô_02953,Lào Cai,Nghĩa Đô_02953,Lào Cai,22.417729,104.441675,14417,90.44542033,159.4,0,180,0,0,0,0,0,0,0,0,0,0,0,0
04288,Nghĩa Lộ,15,Lào Cai,NO,Nghĩa Lộ_04288,Lào Cai,Nghĩa Lộ_04288,Lào Cai,21.592881,104.487604,76262,4467.603984,17.07,0,953,0,0,0,0,0,0,0,0,0,0,0,0
04711,Nghĩa Tâm,15,Lào Cai,NO,Nghĩa Tâm,Lào Cai,Nghĩa Tâm,Lào Cai,21.410707,104.851502,19677,147.8362134,133.1,0,245,0,0,0,0,0,0,0,0,0,0,0,0
03004,Ngũ Chỉ Sơn,15,Lào Cai,NO,Ngũ Chỉ Sơn,Lào Cai,Ngũ Chỉ Sơn,Lào Cai,22.433143,103.787442,7779,94.32520917,82.47,0,97,0,0,0,0,0,0,0,0,0,0,0,0
02752,Pha Long,15,Lào Cai,NO,Pha Long,Lào Cai,Pha Long,Lào Cai,22.775044,104.215756,14980,141.8560606,105.6,0,187,0,0,0,0,0,0,0,0,0,0,0,0
04609,Phình Hồ,15,Lào Cai,NO,Phình Hồ,Lào Cai,Phình Hồ,Lào Cai,21.452677,104.508888,11360,50.26103885,226.02,0,142,0,0,0,0,0,0,0,0,0,0,0,0
04402,Phong Dụ Hạ,15,Lào Cai,NO,Phong Dụ Hạ,Lào Cai,Phong Dụ Hạ,Lào Cai,21.896016,104.509992,8320,60.11995086,138.39,0,104,0,0,0,0,0,0,0,0,0,0,0,0
04423,Phong Dụ Thượng,15,Lào Cai,NO,Phong Dụ Thượng,Lào Cai,Phong Dụ Thượng,Lào Cai,21.824205,104.431272,6937,35.53608934,195.21,0,86,0,0,0,0,0,0,0,0,0,0,0,0
02902,Phong Hải,15,Lào Cai,NO,Phong Hải,Lào Cai,Phong Hải,Lào Cai,22.478723,104.122364,17565,145.2853598,120.9,0,219,0,0,0,0,0,0,0,0,0,0,0,0
02998,Phúc Khánh,15,Lào Cai,NO,Phúc Khánh,Lào Cai,Phúc Khánh,Lào Cai,22.169103,104.550804,8848,77.61403509,114,0,110,0,0,0,0,0,0,0,0,0,0,0,0
04363,Phúc Lợi,15,Lào Cai,NO,Phúc Lợi_04363,Lào Cai,Phúc Lợi_04363,Lào Cai,22.006091,104.70722,15934,99.14753282,160.71,0,199,0,0,0,0,0,0,0,0,0,0,0,0
04492,Púng Luông,15,Lào Cai,NO,Púng Luông,Lào Cai,Púng Luông,Lào Cai,21.735867,104.194941,20234,79.90048965,253.24,0,252,0,0,0,0,0,0,0,0,0,0,0,0
04531,Quy Mông,15,Lào Cai,NO,Quy Mông,Lào Cai,Quy Mông,Lào Cai,21.723808,104.766024,16764,112.3818462,149.17,0,209,0,0,0,0,0,0,0,0,0,0,0,0
03006,Sa Pa,15,Lào Cai,NO,Sa Pa,Lào Cai,Sa Pa,Lào Cai,22.343852,103.84728,23724,434.2668863,54.63,0,296,0,0,0,0,0,0,0,0,0,0,0,0
02809,Si Ma Cai,15,Lào Cai,NO,Si Ma Cai,Lào Cai,Si Ma Cai,Lào Cai,22.67839,104.284668,23712,217.5412844,109,0,296,0,0,0,0,0,0,0,0,0,0,0,0
02824,Sín Chéng,15,Lào Cai,NO,Sín Chéng,Lào Cai,Sín Chéng,Lào Cai,22.661464,104.209146,5912,67.18181818,88,0,73,0,0,0,0,0,0,0,0,0,0,0,0
04651,Sơn Lương,15,Lào Cai,NO,Sơn Lương_04651,Lào Cai,Sơn Lương_04651,Lào Cai,21.703958,104.509317,24224,249.9380933,96.92,0,302,0,0,0,0,0,0,0,0,0,0,0,0
02842,Tả Củ Tỷ,15,Lào Cai,NO,Tả Củ Tỷ,Lào Cai,Tả Củ Tỷ,Lào Cai,22.626183,104.397439,0,0,67.15,0,0,0,0,0,0,0,0,0,0,0,0,0,0
03013,Tả Phìn,15,Lào Cai,NO,Tả Phìn,Lào Cai,Tả Phìn,Lào Cai,22.391818,103.867976,10293,137.8280664,74.68,0,128,0,0,0,0,0,0,0,0,0,0,0,0
03037,Tả Van,15,Lào Cai,NO,Tả Van,Lào Cai,Tả Van,Lào Cai,22.26838,103.862802,19321,121.8990536,158.5,0,241,0,0,0,0,0,0,0,0,0,0,0,0
04603,Tà Xi Láng,15,Lào Cai,NO,Tà Xi Láng,Lào Cai,Tà Xi Láng,Lào Cai,21.470088,104.604984,0,0,88.5,0,0,0,0,0,0,0,0,0,0,0,0,0,0
04429,Tân Hợp,15,Lào Cai,NO,Tân Hợp,Lào Cai,Tân Hợp,Lào Cai,21.824667,104.574485,11929,59.51110002,200.45,0,149,0,0,0,0,0,0,0,0,0,0,0,0
04336,Tân Lĩnh,15,Lào Cai,NO,Tân Lĩnh,Lào Cai,Tân Lĩnh,Lào Cai,22.076853,104.751494,20896,141.428088,147.75,0,261,0,0,0,0,0,0,0,0,0,0,0,0
02908,Tằng Loỏng,15,Lào Cai,NO,Tằng Loỏng,Lào Cai,Tằng Loỏng,Lào Cai,22.260052,104.137697,0,0,125.72,0,0,0,0,0,0,0,0,0,0,0,0,0,0
04717,Thác Bà,15,Lào Cai,NO,Thác Bà,Lào Cai,Thác Bà,Lào Cai,21.759469,105.033974,36414,255.4651326,142.54,0,455,0,0,0,0,0,0,0,0,0,0,0,0
04705,Thượng Bằng La,15,Lào Cai,NO,Thượng Bằng La,Lào Cai,Thượng Bằng La,Lào Cai,21.408351,104.766254,15237,136.5200251,111.61,0,190,0,0,0,0,0,0,0,0,0,0,0,0
02968,Thượng Hà,15,Lào Cai,NO,Thượng Hà,Lào Cai,Thượng Hà,Lào Cai,22.29066,104.376734,1468,10.20862309,143.8,0,18,0,0,0,0,0,0,0,0,0,0,0,0
04606,Trạm Tấu,15,Lào Cai,NO,Trạm Tấu,Lào Cai,Trạm Tấu,Lào Cai,21.555891,104.425928,11915,50.00209828,238.29,0,148,0,0,0,0,0,0,0,0,0,0,0,0
04498,Trấn Yên,15,Lào Cai,NO,Trấn Yên,Lào Cai,Trấn Yên,Lào Cai,21.811622,104.814711,30334,273.9703757,110.72,0,379,0,0,0,0,0,0,0,0,0,0,0,0
02695,Trịnh Tường,15,Lào Cai,NO,Trịnh Tường,Lào Cai,Trịnh Tường,Lào Cai,22.63757,103.744282,12831,87.52387449,146.6,0,160,0,0,0,0,0,0,0,0,0,0,0,0
04663,Trung Tâm,15,Lào Cai,NO,Trung Tâm,Lào Cai,Trung Tâm,Lào Cai,21.588115,104.546338,27877,646.0486674,43.15,0,348,0,0,0,0,0,0,0,0,0,0,0,0
04630,Tú Lệ,15,Lào Cai,NO,Tú Lệ,Lào Cai,Tú Lệ,Lào Cai,21.780726,104.276811,13790,119.5491981,115.35,0,172,0,0,0,0,0,0,0,0,0,0,0,0
03082,Văn Bàn,15,Lào Cai,NO,Văn Bàn,Lào Cai,Văn Bàn,Lào Cai,22.121942,104.254323,24824,158.417358,156.7,0,310,0,0,0,0,0,0,0,0,0,0,0,0
04672,Văn Chấn,15,Lào Cai,NO,Văn Chấn,Lào Cai,Văn Chấn,Lào Cai,21.57334,104.610151,24646,175.7415859,140.24,0,308,0,0,0,0,0,0,0,0,0,0,0,0
04279,Văn Phú,15,Lào Cai,NO,Văn Phú_04279,Lào Cai,Văn Phú_04279,Lào Cai,21.69612,104.944889,27550,535.3672756,51.46,0,344,0,0,0,0,0,0,0,0,0,0,0,0
04564,Việt Hồng,15,Lào Cai,NO,Việt Hồng,Lào Cai,Việt Hồng,Lào Cai,21.602242,104.852768,11199,110.4764723,101.37,0,139,0,0,0,0,0,0,0,0,0,0,0,0
03061,Võ Lao,15,Lào Cai,NO,Võ Lao,Lào Cai,Võ Lao,Lào Cai,22.175931,104.160012,18571,121.5379581,152.8,0,232,0,0,0,0,0,0,0,0,0,0,0,0
04441,Xuân Ái,15,Lào Cai,NO,Xuân Ái,Lào Cai,Xuân Ái,Lào Cai,21.797868,104.709815,25657,207.0281611,123.93,0,320,0,0,0,0,0,0,0,0,0,0,0,0
02962,Xuân Hòa,15,Lào Cai,NO,Xuân Hòa_02962,Lào Cai,Xuân Hòa_02962,Lào Cai,22.291767,104.503141,81379,265.9444444,306,0,1017,0,0,0,0,0,0,0,0,0,0,0,0
02926,Xuân Quang,15,Lào Cai,NO,Xuân Quang,Lào Cai,Xuân Quang,Lào Cai,22.366162,104.232013,28219,204.9310094,137.7,0,352,0,0,0,0,0,0,0,0,0,0,0,0
02701,Y Tý,15,Lào Cai,NO,Y Tý,Lào Cai,Y Tý,Lào Cai,22.661809,103.618855,10683,83.72257053,127.6,0,133,0,0,0,0,0,0,0,0,0,0,0,0
04252,Yên Bái,15,Lào Cai,NO,Yên Bái,Lào Cai,Yên Bái,Lào Cai,21.714022,104.893111,72981,4313.297872,16.92,0,912,0,0,0,0,0,0,0,0,0,0,0,0
04714,Yên Bình,15,Lào Cai,NO,Yên Bình_04714,Lào Cai,Yên Bình_04714,Lào Cai,21.773729,104.95287,0,0,9,0,0,0,0,0,0,0,0,0,0,0,0,0,0
04744,Yên Thành,15,Lào Cai,NO,Yên Thành_04744,Lào Cai,Yên Thành_04744,Lào Cai,21.891892,104.9753,4953,129.8977183,38.13,0,61,0,0,0,0,0,0,0,0,0,0,0,0
05809,An Khánh,19,Thái Nguyên,NO,An Khánh_05809,Thái Nguyên,An Khánh_05809,Thái Nguyên,21.628995,105.714042,20843,462.2532712,45.09,0,260,0,0,0,0,0,0,0,0,0,0,0,0
01906,Ba Bể,19,Thái Nguyên,NO,Ba Bể,Thái Nguyên,Ba Bể,Thái Nguyên,22.439056,105.618838,12206,82.42841707,148.08,0,152,0,0,0,0,0,0,0,0,0,0,0,0
05533,Bá Xuyên,19,Thái Nguyên,NO,Bá Xuyên,Thái Nguyên,Bá Xuyên,Thái Nguyên,21.48719,105.828706,20803,984.5243729,21.13,0,260,0,0,0,0,0,0,0,0,0,0,0,0
01843,Bắc Kạn,19,Thái Nguyên,NO,Bắc Kạn,Thái Nguyên,Bắc Kạn,Thái Nguyên,22.109402,105.859724,26321,365.5694444,72,0,329,0,0,0,0,0,0,0,0,0,0,0,0
05528,Bách Quang,19,Thái Nguyên,NO,Bách Quang,Thái Nguyên,Bách Quang,Thái Nguyên,21.504987,105.865773,27649,789.5202741,35.02,0,345,0,0,0,0,0,0,0,0,0,0,0,0
02014,Bạch Thông,19,Thái Nguyên,NO,Bạch Thông,Thái Nguyên,Bạch Thông,Thái Nguyên,22.155062,105.67377,8554,66.91176471,127.84,0,106,0,0,0,0,0,0,0,0,0,0,0,0
01864,Bằng Thành,19,Thái Nguyên,NO,Bằng Thành,Thái Nguyên,Bằng Thành,Thái Nguyên,22.658725,105.665764,14498,69.62827778,208.22,0,181,0,0,0,0,0,0,0,0,0,0,0,0
01942,Bằng Vân,19,Thái Nguyên,NO,Bằng Vân,Thái Nguyên,Bằng Vân,Thái Nguyên,22.512095,106.056578,5850,43.98165551,133.01,0,73,0,0,0,0,0,0,0,0,0,0,0,0
05605,Bình Thành,19,Thái Nguyên,NO,Bình Thành_05605,Thái Nguyên,Bình Thành_05605,Thái Nguyên,21.794271,105.572605,33366,462.7739251,72.1,0,417,0,0,0,0,0,0,0,0,0,0,0,0
05587,Bình Yên,19,Thái Nguyên,NO,Bình Yên,Thái Nguyên,Bình Yên,Thái Nguyên,21.862594,105.556768,16698,345.2853598,48.36,0,208,0,0,0,0,0,0,0,0,0,0,0,0
02008,Cẩm Giàng,19,Thái Nguyên,NO,Cẩm Giàng_02008,Thái Nguyên,Cẩm Giàng_02008,Thái Nguyên,22.184922,105.903872,11759,106.1377381,110.79,0,146,0,0,0,0,0,0,0,0,0,0,0,0
01879,Cao Minh,19,Thái Nguyên,NO,Cao Minh,Thái Nguyên,Cao Minh,Thái Nguyên,22.576839,105.608013,13278,98.43576247,134.89,0,165,0,0,0,0,0,0,0,0,0,0,0,0
02020,Chợ Đồn,19,Thái Nguyên,NO,Chợ Đồn,Thái Nguyên,Chợ Đồn,Thái Nguyên,22.157363,105.588075,16850,118.5784659,142.1,0,210,0,0,0,0,0,0,0,0,0,0,0,0
02086,Chợ Mới,19,Thái Nguyên,NO,Chợ Mới_02086,Thái Nguyên,Chợ Mới_02086,Thái Nguyên,21.877913,105.83354,83806,1661.828277,50.43,0,1047,0,0,0,0,0,0,0,0,0,0,0,0
01912,Chợ Rã,19,Thái Nguyên,NO,Chợ Rã,Thái Nguyên,Chợ Rã,Thái Nguyên,22.434146,105.730413,15040,162.0515031,92.81,0,188,0,0,0,0,0,0,0,0,0,0,0,0
02185,Côn Minh,19,Thái Nguyên,NO,Côn Minh,Thái Nguyên,Côn Minh,Thái Nguyên,22.109861,106.005888,6879,47.03268153,146.26,0,85,0,0,0,0,0,0,0,0,0,0,0,0
02152,Cường Lợi,19,Thái Nguyên,NO,Cường Lợi,Thái Nguyên,Cường Lợi,Thái Nguyên,22.317746,106.157202,5941,50.41154009,117.85,0,74,0,0,0,0,0,0,0,0,0,0,0,0
05488,Đại Phúc,19,Thái Nguyên,NO,Đại Phúc,Thái Nguyên,Đại Phúc,Thái Nguyên,21.577535,105.734622,4066,37.83381409,107.47,0,50,0,0,0,0,0,0,0,0,0,0,0,0
05830,Đại Từ,19,Thái Nguyên,NO,Đại Từ,Thái Nguyên,Đại Từ,Thái Nguyên,21.583645,105.596605,28015,403.5580524,69.42,0,350,0,0,0,0,0,0,0,0,0,0,0,0
05755,Dân Tiến,19,Thái Nguyên,NO,Dân Tiến,Thái Nguyên,Dân Tiến,Thái Nguyên,21.679801,106.163944,2010,13.9312448,144.28,0,25,0,0,0,0,0,0,0,0,0,0,0,0
05941,Điềm Thụy,19,Thái Nguyên,NO,Điềm Thụy,Thái Nguyên,Điềm Thụy,Thái Nguyên,21.459058,105.918306,4340,103.2595765,42.03,0,54,0,0,0,0,0,0,0,0,0,0,0,0
05569,Định Hóa,19,Thái Nguyên,NO,Định Hóa_05569,Thái Nguyên,Định Hóa_05569,Thái Nguyên,21.907143,105.603142,23154,344.0416048,67.3,0,289,0,0,0,0,0,0,0,0,0,0,0,0
05692,Đồng Hỷ,19,Thái Nguyên,NO,Đồng Hỷ,Thái Nguyên,Đồng Hỷ,Thái Nguyên,21.66581,105.828142,32153,598.5294118,53.72,0,401,0,0,0,0,0,0,0,0,0,0,0,0
01933,Đồng Phúc,19,Thái Nguyên,NO,Đồng Phúc,Thái Nguyên,Đồng Phúc,Thái Nguyên,22.309552,105.703413,12153,61.03661293,199.11,0,151,0,0,0,0,0,0,0,0,0,0,0,0
05776,Đức Lương,19,Thái Nguyên,NO,Đức Lương,Thái Nguyên,Đức Lương,Thái Nguyên,21.738887,105.580144,13666,224.4006568,60.9,0,170,0,0,0,0,0,0,0,0,0,0,0,0
01840,Đức Xuân,19,Thái Nguyên,NO,Đức Xuân,Thái Nguyên,Đức Xuân,Thái Nguyên,22.169683,105.84966,2349,68.16598955,34.46,0,29,0,0,0,0,0,0,0,0,0,0,0,0
05467,Gia Sàng,19,Thái Nguyên,NO,Gia Sàng,Thái Nguyên,Gia Sàng,Thái Nguyên,21.559605,105.883211,45716,1794.895956,25.47,0,571,0,0,0,0,0,0,0,0,0,0,0,0
01960,Hiệp Lực,19,Thái Nguyên,NO,Hiệp Lực,Thái Nguyên,Hiệp Lực,Thái Nguyên,22.325629,105.981651,7586,72.23386022,105.02,0,94,0,0,0,0,0,0,0,0,0,0,0,0
05632,Hợp Thành,19,Thái Nguyên,NO,Hợp Thành_05632,Thái Nguyên,Hợp Thành_05632,Thái Nguyên,21.764412,105.662184,11226,272.4757282,41.2,0,140,0,0,0,0,0,0,0,0,0,0,0,0
05953,Kha Sơn,19,Thái Nguyên,NO,Kha Sơn,Thái Nguyên,Kha Sơn,Thái Nguyên,21.432531,105.996194,4379,115.6935271,37.85,0,54,0,0,0,0,0,0,0,0,0,0,0,0
05551,Kim Phượng,19,Thái Nguyên,NO,Kim Phượng,Thái Nguyên,Kim Phượng,Thái Nguyên,21.965944,105.623894,11512,146.4444727,78.61,0,143,0,0,0,0,0,0,0,0,0,0,0,0
05818,La Bằng,19,Thái Nguyên,NO,La Bằng,Thái Nguyên,La Bằng,Thái Nguyên,21.621345,105.540909,18908,310.78238,60.84,0,236,0,0,0,0,0,0,0,0,0,0,0,0
05740,La Hiên,19,Thái Nguyên,NO,La Hiên,Thái Nguyên,La Hiên,Thái Nguyên,21.74384,105.947981,12720,177.7777778,71.55,0,159,0,0,0,0,0,0,0,0,0,0,0,0
05542,Lam Vỹ,19,Thái Nguyên,NO,Lam Vỹ,Thái Nguyên,Lam Vỹ,Thái Nguyên,21.996494,105.696807,8370,117.1940633,71.42,0,104,0,0,0,0,0,0,0,0,0,0,0,0
05710,Linh Sơn,19,Thái Nguyên,NO,Linh Sơn_05710,Thái Nguyên,Linh Sơn_05710,Thái Nguyên,21.609575,105.866662,48452,1233.503055,39.28,0,605,0,0,0,0,0,0,0,0,0,0,0,0
01936,Nà Phặc,19,Thái Nguyên,NO,Nà Phặc,Thái Nguyên,Nà Phặc,Thái Nguyên,22.403746,105.904832,9570,94.58390986,101.18,0,119,0,0,0,0,0,0,0,0,0,0,0,0
02155,Na Rì,19,Thái Nguyên,NO,Na Rì,Thái Nguyên,Na Rì,Thái Nguyên,22.206294,106.176957,11916,105.7038943,112.73,0,148,0,0,0,0,0,0,0,0,0,0,0,0
02026,Nam Cường,19,Thái Nguyên,NO,Nam Cường_02026,Thái Nguyên,Nam Cường_02026,Thái Nguyên,22.343041,105.575382,11190,74.77447377,149.65,0,139,0,0,0,0,0,0,0,0,0,0,0,0
05707,Nam Hòa,19,Thái Nguyên,NO,Nam Hòa,Thái Nguyên,Nam Hòa,Thái Nguyên,21.629473,105.982559,16834,258.9049523,65.02,0,210,0,0,0,0,0,0,0,0,0,0,0,0
01954,Ngân Sơn,19,Thái Nguyên,NO,Ngân Sơn,Thái Nguyên,Ngân Sơn,Thái Nguyên,22.4713,105.939407,856,5.880332486,145.57,0,10,0,0,0,0,0,0,0,0,0,0,0,0
02071,Nghĩa Tá,19,Thái Nguyên,NO,Nghĩa Tá,Thái Nguyên,Nghĩa Tá,Thái Nguyên,22.053323,105.529496,8073,48.37317994,166.89,0,100,0,0,0,0,0,0,0,0,0,0,0,0
01882,Nghiên Loan,19,Thái Nguyên,NO,Nghiên Loan,Thái Nguyên,Nghiên Loan,Thái Nguyên,22.558089,105.724637,1144,8.7777181,130.33,0,14,0,0,0,0,0,0,0,0,0,0,0,0
05722,Nghinh Tường,19,Thái Nguyên,NO,Nghinh Tường,Thái Nguyên,Nghinh Tường,Thái Nguyên,21.851943,106.063081,6795,42.27586636,160.73,0,84,0,0,0,0,0,0,0,0,0,0,0,0
05443,Phan Đình Phùng,19,Thái Nguyên,NO,Phan Đình Phùng,Thái Nguyên,Phan Đình Phùng,Thái Nguyên,21.585942,105.836259,115584,7846.843177,14.73,0,1444,0,0,0,0,0,0,0,0,0,0,0,0
05860,Phổ Yên,19,Thái Nguyên,NO,Phổ Yên,Thái Nguyên,Phổ Yên,Thái Nguyên,21.443059,105.887431,50971,1252.358722,40.7,0,637,0,0,0,0,0,0,0,0,0,0,0,0
01849,Phong Quang,19,Thái Nguyên,NO,Phong Quang,Thái Nguyên,Phong Quang,Thái Nguyên,22.210008,105.754223,6370,41.50918806,153.46,0,79,0,0,0,0,0,0,0,0,0,0,0,0
05908,Phú Bình,19,Thái Nguyên,NO,Phú Bình,Thái Nguyên,Phú Bình,Thái Nguyên,21.47662,105.95634,46495,1052.399276,44.18,0,581,0,0,0,0,0,0,0,0,0,0,0,0
05602,Phú Đình,19,Thái Nguyên,NO,Phú Đình,Thái Nguyên,Phú Đình,Thái Nguyên,21.808467,105.522839,12178,254.2910837,47.89,0,152,0,0,0,0,0,0,0,0,0,0,0,0
05788,Phú Lạc,19,Thái Nguyên,NO,Phú Lạc,Thái Nguyên,Phú Lạc,Thái Nguyên,21.683294,105.644863,21881,376.8038574,58.07,0,273,0,0,0,0,0,0,0,0,0,0,0,0
05611,Phú Lương,19,Thái Nguyên,NO,Phú Lương_05611,Thái Nguyên,Phú Lương_05611,Thái Nguyên,21.747671,105.725007,45530,405.1072159,112.39,0,569,0,0,0,0,0,0,0,0,0,0,0,0
05800,Phú Thịnh,19,Thái Nguyên,NO,Phú Thịnh,Thái Nguyên,Phú Thịnh,Thái Nguyên,21.686313,105.566265,22118,487.5027551,45.37,0,276,0,0,0,0,0,0,0,0,0,0,0,0
01969,Phủ Thông,19,Thái Nguyên,NO,Phủ Thông,Thái Nguyên,Phủ Thông,Thái Nguyên,22.267008,105.85371,1381,14.24592531,96.94,0,17,0,0,0,0,0,0,0,0,0,0,0,0
05773,Phú Xuyên,19,Thái Nguyên,NO,Phú Xuyên_05773,Thái Nguyên,Phú Xuyên_05773,Thái Nguyên,21.68245,105.515317,23901,370.0991019,64.58,0,298,0,0,0,0,0,0,0,0,0,0,0,0
01894,Phúc Lộc,19,Thái Nguyên,NO,Phúc Lộc_01894,Thái Nguyên,Phúc Lộc_01894,Thái Nguyên,22.470864,105.825805,29275,415.248227,70.5,0,365,0,0,0,0,0,0,0,0,0,0,0,0
05857,Phúc Thuận,19,Thái Nguyên,NO,Phúc Thuận,Thái Nguyên,Phúc Thuận,Thái Nguyên,21.465239,105.755634,30120,406.1488673,74.16,0,376,0,0,0,0,0,0,0,0,0,0,0,0
05563,Phượng Tiến,19,Thái Nguyên,NO,Phượng Tiến,Thái Nguyên,Phượng Tiến,Thái Nguyên,21.928992,105.721135,13801,134.3816943,102.7,0,172,0,0,0,0,0,0,0,0,0,0,0,0
05851,Quân Chu,19,Thái Nguyên,NO,Quân Chu,Thái Nguyên,Quân Chu,Thái Nguyên,21.488809,105.685396,13577,171.0380448,79.38,0,169,0,0,0,0,0,0,0,0,0,0,0,0
05482,Quan Triều,19,Thái Nguyên,NO,Quan Triều,Thái Nguyên,Quan Triều,Thái Nguyên,21.63209,105.788909,43848,1773.786408,24.72,0,548,0,0,0,0,0,0,0,0,0,0,0,0
02038,Quảng Bạch,19,Thái Nguyên,NO,Quảng Bạch,Thái Nguyên,Quảng Bạch,Thái Nguyên,22.273792,105.60838,3955,52.5791013,75.22,0,49,0,0,0,0,0,0,0,0,0,0,0,0
05674,Quang Sơn,19,Thái Nguyên,NO,Quang Sơn,Thái Nguyên,Quang Sơn,Thái Nguyên,21.734772,105.881105,11235,191.6254477,58.63,0,140,0,0,0,0,0,0,0,0,0,0,0,0
05455,Quyết Thắng,19,Thái Nguyên,NO,Quyết Thắng_05455,Thái Nguyên,Quyết Thắng_05455,Thái Nguyên,21.581251,105.787476,31034,1270.323373,24.43,0,387,0,0,0,0,0,0,0,0,0,0,0,0
05719,Sảng Mộc,19,Thái Nguyên,NO,Sảng Mộc,Thái Nguyên,Sảng Mộc,Thái Nguyên,21.905619,106.00221,3406,35.1895857,96.79,0,42,0,0,0,0,0,0,0,0,0,0,0,0
05518,Sông Công,19,Thái Nguyên,NO,Sông Công,Thái Nguyên,Sông Công,Thái Nguyên,21.457037,105.849764,21813,1560.300429,13.98,0,272,0,0,0,0,0,0,0,0,0,0,0,0
05503,Tân Cương,19,Thái Nguyên,NO,Tân Cương,Thái Nguyên,Tân Cương,Thái Nguyên,21.51818,105.782632,26464,456.9060773,57.92,0,330,0,0,0,0,0,0,0,0,0,0,0,0
05917,Tân Khánh,19,Thái Nguyên,NO,Tân Khánh_05917,Thái Nguyên,Tân Khánh_05917,Thái Nguyên,21.543291,105.941054,24597,509.1492445,48.31,0,307,0,0,0,0,0,0,0,0,0,0,0,0
02104,Tân Kỳ,19,Thái Nguyên,NO,Tân Kỳ_02104,Thái Nguyên,Tân Kỳ_02104,Thái Nguyên,22.056452,105.892665,34187,293.4506438,116.5,0,427,0,0,0,0,0,0,0,0,0,0,0,0
05923,Tân Thành,19,Thái Nguyên,NO,Tân Thành_05923,Thái Nguyên,Tân Thành_05923,Thái Nguyên,21.503075,106.006728,31737,489.7685185,64.8,0,396,0,0,0,0,0,0,0,0,0,0,0,0
05725,Thần Sa,19,Thái Nguyên,NO,Thần Sa,Thái Nguyên,Thần Sa,Thái Nguyên,21.836193,105.933602,623,4.264786418,146.08,0,7,0,0,0,0,0,0,0,0,0,0,0,0
05881,Thành Công,19,Thái Nguyên,NO,Thành Công_05881,Thái Nguyên,Thành Công_05881,Thái Nguyên,21.394608,105.808866,29321,674.8216341,43.45,0,366,0,0,0,0,0,0,0,0,0,0,0,0
02101,Thanh Mai,19,Thái Nguyên,NO,Thanh Mai,Thái Nguyên,Thanh Mai,Thái Nguyên,22.048959,105.755871,7678,69.12135398,111.08,0,95,0,0,0,0,0,0,0,0,0,0,0,0
02107,Thanh Thịnh,19,Thái Nguyên,NO,Thanh Thịnh,Thái Nguyên,Thanh Thịnh,Thái Nguyên,21.956563,105.829409,9125,81.24833051,112.31,0,114,0,0,0,0,0,0,0,0,0,0,0,0
01921,Thượng Minh,19,Thái Nguyên,NO,Thượng Minh,Thái Nguyên,Thượng Minh,Thái Nguyên,22.354055,105.810242,1143,8.682771194,131.64,0,14,0,0,0,0,0,0,0,0,0,0,0,0
01957,Thượng Quan,19,Thái Nguyên,NO,Thượng Quan,Thái Nguyên,Thượng Quan,Thái Nguyên,22.37477,106.057854,3891,25.12592019,154.86,0,48,0,0,0,0,0,0,0,0,0,0,0,0
05500,Tích Lương,19,Thái Nguyên,NO,Tích Lương,Thái Nguyên,Tích Lương,Thái Nguyên,21.545984,105.850286,57312,2432.597623,23.56,0,716,0,0,0,0,0,0,0,0,0,0,0,0
05662,Trại Cau,19,Thái Nguyên,NO,Trại Cau,Thái Nguyên,Trại Cau,Thái Nguyên,21.582557,105.992467,17964,216.8255884,82.85,0,224,0,0,0,0,0,0,0,0,0,0,0,0
02176,Trần Phú,19,Thái Nguyên,NO,Trần Phú_02176,Thái Nguyên,Trần Phú_02176,Thái Nguyên,22.142849,106.121122,7308,50.2994012,145.29,0,91,0,0,0,0,0,0,0,0,0,0,0,0
05746,Tràng Xá,19,Thái Nguyên,NO,Tràng Xá,Thái Nguyên,Tràng Xá,Thái Nguyên,21.67867,106.054804,15146,127.0850814,119.18,0,189,0,0,0,0,0,0,0,0,0,0,0,0
05581,Trung Hội,19,Thái Nguyên,NO,Trung Hội,Thái Nguyên,Trung Hội,Thái Nguyên,21.82826,105.649641,14373,265.1355838,54.21,0,179,0,0,0,0,0,0,0,0,0,0,0,0
05899,Trung Thành,19,Thái Nguyên,NO,Trung Thành_05899,Thái Nguyên,Trung Thành_05899,Thái Nguyên,21.360962,105.878458,38439,1487.577399,25.84,0,480,0,0,0,0,0,0,0,0,0,0,0,0
05680,Văn Hán,19,Thái Nguyên,NO,Văn Hán,Thái Nguyên,Văn Hán,Thái Nguyên,21.664715,105.921282,20668,214.71016,96.26,0,258,0,0,0,0,0,0,0,0,0,0,0,0
02143,Văn Lang,19,Thái Nguyên,NO,Văn Lang_02143,Thái Nguyên,Văn Lang_02143,Thái Nguyên,22.24484,106.056116,18609,108.4503759,171.59,0,232,0,0,0,0,0,0,0,0,0,0,0,0
05665,Văn Lăng,19,Thái Nguyên,NO,Văn Lăng,Thái Nguyên,Văn Lăng,Thái Nguyên,21.776285,105.833906,9852,130.8888003,75.27,0,123,0,0,0,0,0,0,0,0,0,0,0,0
05845,Vạn Phú,19,Thái Nguyên,NO,Vạn Phú,Thái Nguyên,Vạn Phú,Thái Nguyên,21.543187,105.631804,22873,446.7382813,51.2,0,285,0,0,0,0,0,0,0,0,0,0,0,0
05890,Vạn Xuân,19,Thái Nguyên,NO,Vạn Xuân_05890,Thái Nguyên,Vạn Xuân_05890,Thái Nguyên,21.403033,105.892857,6387,158.880597,40.2,0,79,0,0,0,0,0,0,0,0,0,0,0,0
01981,Vĩnh Thông,19,Thái Nguyên,NO,Vĩnh Thông_01981,Thái Nguyên,Vĩnh Thông_01981,Thái Nguyên,22.215815,105.985515,4801,37.05905056,129.55,0,60,0,0,0,0,0,0,0,0,0,0,0,0
05716,Võ Nhai,19,Thái Nguyên,NO,Võ Nhai,Thái Nguyên,Võ Nhai,Thái Nguyên,21.761511,106.077145,18153,181.9302465,99.78,0,226,0,0,0,0,0,0,0,0,0,0,0,0
05641,Vô Tranh,19,Thái Nguyên,NO,Vô Tranh,Thái Nguyên,Vô Tranh,Thái Nguyên,21.70098,105.766013,39660,474.7994732,83.53,0,495,0,0,0,0,0,0,0,0,0,0,0,0
02191,Xuân Dương,19,Thái Nguyên,NO,Xuân Dương_02191,Thái Nguyên,Xuân Dương_02191,Thái Nguyên,21.996089,106.021853,6864,33.20754717,206.7,0,85,0,0,0,0,0,0,0,0,0,0,0,0
02116,Yên Bình,19,Thái Nguyên,NO,Yên Bình_02116,Thái Nguyên,Yên Bình_02116,Thái Nguyên,21.951172,105.956231,15358,128.8206677,119.22,0,191,0,0,0,0,0,0,0,0,0,0,0,0
02083,Yên Phong,19,Thái Nguyên,NO,Yên Phong_02083,Thái Nguyên,Yên Phong_02083,Thái Nguyên,22.08404,105.636103,7650,65.95964822,115.98,0,95,0,0,0,0,0,0,0,0,0,0,0,0
02044,Yên Thịnh,19,Thái Nguyên,NO,Yên Thịnh,Thái Nguyên,Yên Thịnh,Thái Nguyên,22.212767,105.489939,5677,34.24004825,165.8,0,70,0,0,0,0,0,0,0,0,0,0,0,0
05620,Yên Trạch,19,Thái Nguyên,NO,Yên Trạch,Thái Nguyên,Yên Trạch,Thái Nguyên,21.836246,105.71068,24409,216.6222932,112.68,0,305,0,0,0,0,0,0,0,0,0,0,0,0
06196,Ba Sơn,20,Lạng Sơn,NO,Ba Sơn,Lạng Sơn,Ba Sơn,Lạng Sơn,21.906364,106.970733,10799,69.68895199,154.96,0,134,0,0,0,0,0,0,0,0,0,0,0,0
06325,Bắc Sơn,20,Lạng Sơn,NO,Bắc Sơn,Lạng Sơn,Bắc Sơn,Lạng Sơn,21.913478,106.342302,17529,217.8598061,80.46,0,219,0,0,0,0,0,0,0,0,0,0,0,0
06475,Bằng Mạc,20,Lạng Sơn,NO,Bằng Mạc,Lạng Sơn,Bằng Mạc,Lạng Sơn,21.717106,106.522698,14149,120.0899677,117.82,0,176,0,0,0,0,0,0,0,0,0,0,0,0
06112,Bình Gia,20,Lạng Sơn,NO,Bình Gia,Lạng Sơn,Bình Gia,Lạng Sơn,21.971061,106.343413,15560,148.2187083,104.98,0,194,0,0,0,0,0,0,0,0,0,0,0,0
06427,Cai Kinh,20,Lạng Sơn,NO,Cai Kinh,Lạng Sơn,Cai Kinh,Lạng Sơn,21.585456,106.364979,12469,118.1223948,105.56,0,155,0,0,0,0,0,0,0,0,0,0,0,0
06211,Cao Lộc,20,Lạng Sơn,NO,Cao Lộc,Lạng Sơn,Cao Lộc,Lạng Sơn,21.941807,106.810673,717,6.903523975,103.86,0,8,0,0,0,0,0,0,0,0,0,0,0,0
06637,Châu Sơn,20,Lạng Sơn,NO,Châu Sơn_06637,Lạng Sơn,Châu Sơn_06637,Lạng Sơn,21.451344,107.173107,6166,20.46397398,301.31,0,77,0,0,0,0,0,0,0,0,0,0,0,0
06463,Chi Lăng,20,Lạng Sơn,NO,Chi Lăng_06463,Lạng Sơn,Chi Lăng_06463,Lạng Sơn,21.608418,106.535607,0,0,80.21,0,0,0,0,0,0,0,0,0,0,0,0,0,0
06481,Chiến Thắng,20,Lạng Sơn,NO,Chiến Thắng,Lạng Sơn,Chiến Thắng,Lạng Sơn,21.724454,106.748643,11988,104.909425,114.27,0,149,0,0,0,0,0,0,0,0,0,0,0,0
06220,Công Sơn,20,Lạng Sơn,NO,Công Sơn,Lạng Sơn,Công Sơn,Lạng Sơn,21.881,106.865662,6745,79.59641256,84.74,0,84,0,0,0,0,0,0,0,0,0,0,0,0
06280,Điềm He,20,Lạng Sơn,NO,Điềm He,Lạng Sơn,Điềm He,Lạng Sơn,21.94389,106.564874,1175,11.39449185,103.12,0,14,0,0,0,0,0,0,0,0,0,0,0,0
06613,Đình Lập,20,Lạng Sơn,NO,Đình Lập,Lạng Sơn,Đình Lập,Lạng Sơn,21.593682,107.063939,10280,62.4316774,164.66,0,128,0,0,0,0,0,0,0,0,0,0,0,0
06001,Đoàn Kết,20,Lạng Sơn,NO,Đoàn Kết_06001,Lạng Sơn,Đoàn Kết_06001,Lạng Sơn,22.387838,106.264408,18598,77.27914901,240.66,0,232,0,0,0,0,0,0,0,0,0,0,0,0
06184,Đồng Đăng,20,Lạng Sơn,NO,Đồng Đăng,Lạng Sơn,Đồng Đăng,Lạng Sơn,21.947486,106.713,25895,282.7891231,91.57,0,323,0,0,0,0,0,0,0,0,0,0,0,0
05977,Đông Kinh,20,Lạng Sơn,NO,Đông Kinh_05977,Lạng Sơn,Đông Kinh_05977,Lạng Sơn,21.811529,106.77509,52292,955.8033266,54.71,0,653,0,0,0,0,0,0,0,0,0,0,0,0
06073,Hoa Thám,20,Lạng Sơn,NO,Hoa Thám,Lạng Sơn,Hoa Thám,Lạng Sơn,22.180147,106.367801,6356,41.87640005,151.78,0,79,0,0,0,0,0,0,0,0,0,0,0,0
06172,Hoàng Văn Thụ,20,Lạng Sơn,NO,Hoàng Văn Thụ,Lạng Sơn,Hoàng Văn Thụ,Lạng Sơn,21.965302,106.649872,43155,699.4327391,61.7,0,539,0,0,0,0,0,0,0,0,0,0,0,0
06151,Hội Hoan,20,Lạng Sơn,NO,Hội Hoan,Lạng Sơn,Hội Hoan,Lạng Sơn,22.03598,106.482779,7754,66.03082688,117.43,0,96,0,0,0,0,0,0,0,0,0,0,0,0
06079,Hồng Phong,20,Lạng Sơn,NO,Hồng Phong_06079,Lạng Sơn,Hồng Phong_06079,Lạng Sơn,22.066326,106.41422,7138,53.6772447,132.98,0,89,0,0,0,0,0,0,0,0,0,0,0,0
06349,Hưng Vũ,20,Lạng Sơn,NO,Hưng Vũ,Lạng Sơn,Hưng Vũ,Lạng Sơn,21.801318,106.366089,12568,94.32602822,133.24,0,157,0,0,0,0,0,0,0,0,0,0,0,0
06400,Hữu Liên,20,Lạng Sơn,NO,Hữu Liên,Lạng Sơn,Hữu Liên,Lạng Sơn,21.671763,106.373986,9076,74.0535248,122.56,0,113,0,0,0,0,0,0,0,0,0,0,0,0
06385,Hữu Lũng,20,Lạng Sơn,NO,Hữu Lũng,Lạng Sơn,Hữu Lũng,Lạng Sơn,21.516138,106.359572,31983,604.936637,52.87,0,399,0,0,0,0,0,0,0,0,0,0,0,0
06037,Kháng Chiến,20,Lạng Sơn,NO,Kháng Chiến,Lạng Sơn,Kháng Chiến,Lạng Sơn,22.266777,106.601621,5893,41.5,142,0,73,0,0,0,0,0,0,0,0,0,0,0,0
06286,Khánh Khê,20,Lạng Sơn,NO,Khánh Khê,Lạng Sơn,Khánh Khê,Lạng Sơn,21.858297,106.671475,13865,148.0670654,93.64,0,173,0,0,0,0,0,0,0,0,0,0,0,0
06565,Khuất Xá,20,Lạng Sơn,NO,Khuất Xá,Lạng Sơn,Khuất Xá,Lạng Sơn,21.726455,107.0988,9624,77.04747418,124.91,0,120,0,0,0,0,0,0,0,0,0,0,0,0
06625,Kiên Mộc,20,Lạng Sơn,NO,Kiên Mộc,Lạng Sơn,Kiên Mộc,Lạng Sơn,21.622568,107.224512,8269,19.79271387,417.78,0,103,0,0,0,0,0,0,0,0,0,0,0,0
06187,Kỳ Lừa,20,Lạng Sơn,NO,Kỳ Lừa,Lạng Sơn,Kỳ Lừa,Lạng Sơn,21.840712,106.833673,0,0,61.7,0,0,0,0,0,0,0,0,0,0,0,0,0,0
06529,Lộc Bình,20,Lạng Sơn,NO,Lộc Bình,Lạng Sơn,Lộc Bình,Lạng Sơn,21.785326,106.907465,24174,305.4200884,79.15,0,302,0,0,0,0,0,0,0,0,0,0,0,0
06601,Lợi Bác,20,Lạng Sơn,NO,Lợi Bác,Lạng Sơn,Lợi Bác,Lạng Sơn,21.637465,106.977849,7426,53.38221551,139.11,0,92,0,0,0,0,0,0,0,0,0,0,0,0
